stop_point_id,lat,lon,name,first_stop_area_id,osm:alt_name,osm:amenity,osm:bench,osm:bus,osm:covered,osm:created_by,osm:fixme,osm:highway,osm:local_ref,osm:name,osm:name:en,osm:network,osm:note,osm:official_status,osm:operator,osm:public_transport,osm:ref,osm:shelter,osm:source,osm:station,osm:tactile_paving,osm:taxi,osm:tourism,osm:wheelchair
StopPoint:node:30729987,5.6064530999999995,-0.1773089,Airport First,,,,yes,yes,yes,,,bus_stop,,Airport First,,,,,Metro Mass Transport,platform,,yes,survey summer 2017 - AccraMobile3 project,,,,,
StopPoint:node:30730108,5.587401,-0.1675613,Home touch,,,,,yes,,,,bus_stop,,Home touch,,,,,,platform,,,survey summer 2017 - AccraMobile3 project,,,,,
StopPoint:node:30778854,5.601804,-0.19888699999999998,Roman Ridge 2nd,,,,,yes,,,,bus_stop,,Roman Ridge 2nd,,,,,,platform,,,survey summer 2017 - AccraMobile3 project,,,,,
StopPoint:node:30933315,9.449891599999999,-0.845144,,,,,,,,JOSM,,bus_stop,,,,,,,,,,,,,,,,
StopPoint:node:325329480,5.6247652,-0.28343039999999997,Sowutuom,,,,,yes,,,,bus_stop,,Sowutuom,,,,,,platform,,,survey summer 2017 - AccraMobile3 project,,,,,
StopPoint:node:1200964747,5.6747917,-0.0435957,Under Bridge,,,,,yes,,,,bus_stop,,Under Bridge,,,,,,platform,,,survey summer 2017 - AccraMobile3 project,yes,,,,
StopPoint:node:1292309345,5.9985741,0.5939664,,,,,,,,,,bus_stop,,,,,,,,,,,,,,,,
StopPoint:node:1799111092,9.392959,-0.8210208,,,,,,,,,,bus_stop,Jimli Station,,,,,,,,,,,,,,,
StopPoint:node:1887620725,5.498367399999999,-0.3666181,Kokrobite,,,,,,,,,bus_stop,,Kokrobite,,,,,,,,,,,,,,
StopPoint:node:1986177611,5.683923999999999,-0.2774571,ACP Junction,,,,,yes,,,,bus_stop,,ACP Junction,,,,,,platform,,,survey summer 2017 - AccraMobile3 project,,,,,
StopPoint:node:2011629044,8.0854029,-1.7024997,,,,,,,,,,bus_stop,,,,,,,,,,,,,,,,
StopPoint:node:2026026299,7.3382670999999995,-2.3257822999999997,"Techiman, Wenchi",,,,,yes,,,,bus_stop,,"Techiman, Wenchi",,,,,,platform,,,,,,,,
StopPoint:node:2026041268,7.584333099999999,-1.9375596,"Kumasi, Wenchi",,,,,,,,,bus_stop,,"Kumasi, Wenchi",,,,,,,,,,,,,,
StopPoint:node:2026403679,5.5293198,-0.2639939,Agege Last Stop,,,,,yes,,,,bus_stop,,Agege Last Stop,,,,,,platform,,,survey summer 2017 - AccraMobile3 project,,,,,
StopPoint:node:2026403681,5.5300359,-0.2653038,Dansoman Last Stop,,,,no,yes,,,,bus_stop,,Dansoman Last Stop,,,,,,platform,,no,,,,,,
StopPoint:node:2123784610,5.6369826,-0.0626969,Transformer Junction,,,,,,,,,bus_stop,,Transformer Junction,,,,,,,,,,,,,,
StopPoint:node:2167480351,6.6420287,-1.5906859,,,,,,,,,,bus_stop,,,,,,,,platform,,,,,,,,
StopPoint:node:2324392383,5.6963932999999995,-1.2768382999999999,Tro-Tro Station,,,,,,,,,bus_stop,,Tro-Tro Station,,,,,,,,,,,,,,
StopPoint:node:2481992836,7.5819189,-1.9445386,Sunyani Station,,,,,,,,,bus_stop,,Sunyani Station,,,You can get a taxi or tro here going to Sunyani and the villages along the way.,,,,,,,,,,,
StopPoint:node:2482000562,7.7398539,-2.1068142,Wenchi Taxi Station,,,,,,,,,bus_stop,,Wenchi Taxi Station,,,,,,,,,,,,,,
StopPoint:node:2515237802,8.262565,0.5212015,Nkwanta bus stop,,,,,,,,,bus_stop,,Nkwanta bus stop,,,,,,,,,,,,,,
StopPoint:node:2515543027,9.8934964,-0.7218724,Station,,,,,,,,,bus_stop,,Station,,,,,,,,yes,,,,,,
StopPoint:node:2515586418,9.8518325,-0.7330057999999999,Station,,,,,,,,,bus_stop,,Station,,,,,,,,yes,,,,,,
StopPoint:node:2515592168,9.8463703,-0.7136549,Main Station,,,,,,,,,bus_stop,,Main Station,,,,,,,,,,,,,,
StopPoint:node:2520840464,9.7559874,-0.817865,Nakpanzoo Bus Stop,,,,,,,,,bus_stop,,Nakpanzoo Bus Stop,,,,,,,,yes,,,,,,
StopPoint:node:2520840469,9.745543099999999,-0.8227559999999999,Karaga Junction Bus Stop,,,,,,,,,bus_stop,,Karaga Junction Bus Stop,,,,,None,,,no,,,,,,
StopPoint:node:2520964245,9.801644,-0.9381442,,,,,,,,,,bus_stop,,,,,,,,,,no,,,,,,
StopPoint:node:2581150583,5.6276839,-0.1764355,Shiashie,,,,no,yes,,,,bus_stop,,Shiashie,,,,,,platform,,no,survey summer 2017 - AccraMobile3 project,,,,,
StopPoint:node:2584775101,5.5738018,-0.19750959999999998,Mobil / Kanda Overhead,,Kanda Total,,,yes,,,,bus_stop,,Mobil / Kanda Overhead,,,,,,platform,,yes,survey summer 2017 - AccraMobile3 project,,,,,
StopPoint:node:2621753159,5.2778956,-0.9313613,,,,,,yes,,,,bus_stop,,,,,,,,platform,,,,,,,,
StopPoint:node:2621753162,5.326351799999999,-0.8742784,,,,,,yes,,,,bus_stop,,,,,,,,platform,,,,,,,,
StopPoint:node:2621843173,6.143878399999999,-1.4711111,,,,,,yes,,,,bus_stop,,,,,,,,platform,,,,,,,,
StopPoint:node:2621843237,6.2150815,-1.484461,,,,,,yes,,,,bus_stop,,,,,,,,platform,,,,,,,,
StopPoint:node:2621843261,6.232035799999999,-1.4887612,,,,,,yes,,,,bus_stop,,,,,,,,platform,,,,,,,,
StopPoint:node:2622048436,7.411872,-1.9702916,,,,,,yes,,,,bus_stop,,,,,,,,platform,,,,,,,,
StopPoint:node:2622048438,7.432565599999999,-1.9767176999999998,,,,,,yes,,,,bus_stop,,,,,,,,platform,,,,,,,,
StopPoint:node:2622048439,7.4602309,-1.9713284,,,,,,yes,,,,bus_stop,,,,,,,,platform,,,,,,,,
StopPoint:node:2815791263,5.6028962,-0.25637499999999996,Nyamekye,,,,,yes,,,,bus_stop,,Nyamekye,,,,,,platform,,,survey summer 2017 - AccraMobile3 project,,,,,
StopPoint:node:2917271600,5.6045609999999995,-0.2259544,Tesano,,,,,yes,,,,bus_stop,,Tesano,,,,,,platform,,yes,survey summer 2017 - AccraMobile3 project,,,,,
StopPoint:node:2917277220,5.6139906,-0.22295089999999998,Abofu,,,,no,yes,,,,bus_stop,,Abofu,,,,,,platform,,no,survey summer 2017 - AccraMobile3 project,,,,,
StopPoint:node:2917277221,5.613728999999999,-0.2228677,Abofu,,,,,yes,,,,bus_stop,,Abofu,,,,,,platform,,no,survey summer 2017 - AccraMobile3 project,,,,,
StopPoint:node:2961496543,5.604193599999999,-0.22565919999999998,Tesano,,,,,yes,,,,bus_stop,,Tesano,,,,,,platform,,yes,survey summer 2017 - AccraMobile3 project,,,,,
StopPoint:node:2961513337,5.5621452,-0.17251419999999998,Labone,,,,,yes,,,,bus_stop,,Labone,,,,,,platform,,yes,survey summer 2017 - AccraMobile3 project,,,,,
StopPoint:node:2961513338,5.5629928,-0.1735575,Labone,,,,,yes,,,,bus_stop,,Labone,,,,,,platform,,yes,survey summer 2017 - AccraMobile3 project,,,,,
StopPoint:node:2968610393,5.5904487,-0.1569622,Supply Bus Stop,,,,,,,,,bus_stop,,Supply Bus Stop,,,,,,,,,,,,,,
StopPoint:node:3045917870,5.6220398,-0.1747326,Accra Mall Roundabout,,,,yes,yes,,,,bus_stop,,Accra Mall Roundabout,,,,,,platform,,yes,survey summer 2017 - AccraMobile3 project,,,,,
StopPoint:node:3045917876,5.6227677,-0.1740477,Accra Mall,,,,,yes,,,,bus_stop,,Accra Mall,,,,,,platform,,yes,survey summer 2017 - AccraMobile3 project,,,,,
StopPoint:node:3057177352,6.6867141,-1.5734545,TECH Junction,,,,,,,,,bus_stop,,TECH Junction,,,,,,platform,,,,,,,,
StopPoint:node:3057184986,6.6872229999999995,-1.5779659,Top High,,,,,,,,,bus_stop,,Top High,,,,,Tro-tro,platform,,,,,,,,
StopPoint:node:3057184987,6.6895698999999995,-1.6046015999999999,Children's Park,,,,,,,,,bus_stop,,Children's Park,,,,,Tro-tro,platform,,,,,,,,
StopPoint:node:3057192973,6.7097669,-1.5262121,Blue Gate,,,,,,,,,bus_stop,,Blue Gate,,,,,Tro-tro,platform,,,,,,,,
StopPoint:node:3057209023,6.697220799999999,-1.6216134999999998,Kejetia Junction,,,,,,,,,bus_stop,,Kejetia Junction,,,,,Tro-tro,platform,,,,,,,,
StopPoint:node:3057219957,6.6892736,-1.6155195999999998,Asafo Market,,,,,,,,,bus_stop,,Asafo Market,,,,,Tro-tro,platform,,,,,,,,
StopPoint:node:3073421167,5.6173445,-0.1944473,Dzorwulu Junction,,,,,yes,,,,bus_stop,,Dzorwulu Junction,,,,,,platform,,,survey summer 2017 - AccraMobile3 project,,,,,
StopPoint:node:3077261334,6.6752942,-1.5675778999999999,Campus Shuttle- Start location,,,,,,,,,bus_stop,,Campus Shuttle- Start location,,,,,,,,yes,,,,,,
StopPoint:node:3109289830,5.5673255,-0.2173233,Odorna,,,,,yes,,,,bus_stop,,Odorna,,,,,,platform,,,survey summer 2017 - AccraMobile3 project,,,,,
StopPoint:node:3109291911,5.569608,-0.2132665,Circle,,,,,yes,,,,bus_stop,,Circle,,,,,,platform,,,survey summer 2017 - AccraMobile3 project,,,,,
StopPoint:node:3133741256,5.6420983,-0.16494399999999998,Bawaleshie Second,,,,,yes,,,,bus_stop,La Bawaleshie,Bawaleshie Second,,,,,,platform,,,survey summer 2017 - AccraMobile3 project,,,,,
StopPoint:node:3154321446,5.603722299999999,-0.2578491,Tabora Number 1,,,,,yes,,,,bus_stop,Tabora No1,Tabora Number 1,,,,,,platform,,,survey summer 2017 - AccraMobile3 project,,,,,
StopPoint:node:3154428908,5.6052237,-0.2516826,Abrantie,,,,,yes,,,,bus_stop,Abrantie,Abrantie,,,,,,platform,,,survey summer 2017 - AccraMobile3 project,,,,,
StopPoint:node:3154441074,5.6015887,-0.2559185,Mampong,,,,,yes,,,,bus_stop,mambo Bus stop,Mampong,,,,,,platform,,,survey summer 2017 - AccraMobile3 project,,,,,
StopPoint:node:3154450964,5.6006069,-0.2554957,Mampong,,,,,yes,,,,bus_stop,mambo Bus stop,Mampong,,,,,,platform,,,survey summer 2017 - AccraMobile3 project,,,,,
StopPoint:node:3206882492,6.151099899999999,0.0576362,,,,,,,,,,bus_stop,,,,,,,,,,,,,,,,
StopPoint:node:3206882493,6.1548761,0.060784599999999994,,,,,,,,,,bus_stop,,,,,,,,,,,,,,,,
StopPoint:node:3206882494,6.154956599999999,0.0606516,,,,,,,,,,bus_stop,,,,,,,,,,,,,,,,
StopPoint:node:3206924657,6.0927397999999995,0.043692499999999995,,,,,,,,,,bus_stop,,,,,,,,,,,,,,,,
StopPoint:node:3206924658,6.0947103,0.044385299999999996,,,,,,,,,,bus_stop,,,,,,,,,,,,,,,,
StopPoint:node:3206939315,5.9801696,0.0534812,,,,,,,,,,bus_stop,,,,,,,,,,,,,,,,
StopPoint:node:3206939316,5.9801736,0.0536392,,,,,,,,,,bus_stop,,,,,,,,,,,,,,,,
StopPoint:node:3206965494,5.8835337999999995,0.038060199999999995,,,,,,,,,,bus_stop,,,,,,,,,,,,,,,,
StopPoint:node:3206965495,5.884295799999999,0.0383889,,,,,,,,,,bus_stop,,,,,,,,,,,,,,,,
StopPoint:node:3206986963,5.800590499999999,0.005729199999999999,,,,,,,,,,bus_stop,,,,,,,,,,,,,,,,
StopPoint:node:3206986964,5.800657,0.0056167,,,,,,,,,,bus_stop,,,,,,,,,,,,,,,,
StopPoint:node:3206986965,5.801361399999999,0.0060723999999999995,,,,,,,,,,bus_stop,,,,,,,,,,,,,,,,
StopPoint:node:3207019630,5.7271056,-0.0128305,,,,,,,,,,bus_stop,,,,,,,,,,,,,,,,
StopPoint:node:3207019631,5.7276536,-0.0127751,,,,,,,,,,bus_stop,,,,,,,,,,,,,,,,
StopPoint:node:3207019632,5.7317941,-0.013767399999999999,Michel Camp Gate,,,,,,,,,bus_stop,,Michel Camp Gate,,,,,,,,,,,,,,
StopPoint:node:3207019633,5.7331749,-0.0138826,,,,,,,,,,bus_stop,,,,,,,,,,,,,,,,
StopPoint:node:3207019636,5.757200399999999,-0.0055550999999999994,New Sebrepor Junction,,,,,,,,,bus_stop,,New Sebrepor Junction,,,,,,,,,,,,,,
StopPoint:node:3207025726,6.1558174999999995,0.061185699999999996,,,,,,,,,,bus_stop,,,,,,,,,,,,,,,,
StopPoint:node:3207025727,6.1613321999999995,0.0640901,,,,,,,,,,bus_stop,,,,,,,,,,,,,,,,
StopPoint:node:3207025728,6.2049693999999995,0.07959859999999999,,,,,,,,,,bus_stop,,,,,,,,,,,,,,,,
StopPoint:node:3210498662,5.5791002,-0.155464,Villas,,,,,yes,,,,bus_stop,,Villas,,,,,,platform,,,survey summer 2017 - AccraMobile3 project,,,,,
StopPoint:node:3462084088,5.6434961999999995,-0.1700242,High Tension,,,,,yes,,,,bus_stop,,High Tension,,,,,,platform,,,survey summer 2017 - AccraMobile3 project,,,,,
StopPoint:node:3676894013,5.6395577999999995,0.007883,,,,,,,,,,bus_stop,,,,,,,,,,,,,,,,
StopPoint:node:3676894839,5.6474364999999995,0.0022573,Site 20,,,,,yes,,,,bus_stop,,Site 20,,,,,,platform,,,survey summer 2017 - AccraMobile3 project,,,,,
StopPoint:node:3676894846,5.6510377,0.0002416,Site 10,,,,,yes,,,,bus_stop,,Site 10,,,,,,platform,,,survey summer 2017 - AccraMobile3 project,,,,,
StopPoint:node:3676894848,5.6580141,-0.0035486,Community 4,,,,,yes,,,,bus_stop,,Community 4,,,,,,platform,,,survey summer 2017 - AccraMobile3 project,,,,,
StopPoint:node:3676894849,5.664700799999999,-0.0062296,Community 7,,,,,yes,,,,bus_stop,,Community 7,,,,,,platform,,,survey summer 2017 - AccraMobile3 project,,,,,
StopPoint:node:3785166427,5.6529418,-0.1140452,Trasacco Gate,,,,,,,,,bus_stop,,Trasacco Gate,,,,,,,,,,,,,,
StopPoint:node:3785166428,5.6512389,-0.1292828,Rawlings Junction,,,,,yes,,,,bus_stop,,Rawlings Junction,,,,,,platform,,,survey summer 2017 - AccraMobile3 project,,,,,
StopPoint:node:3821087815,6.6792032,-1.5708294999999999,Conti Roundabout,,,,yes,,yes,,,bus_stop,,Conti Roundabout,,,,,KNUST,,,,,,,,,
StopPoint:node:3821087816,6.6785868,-1.5702665,Conti Roundabout,,,,yes,,yes,,,bus_stop,,Conti Roundabout,,,,,KNUST,,,yes,,,,,,
StopPoint:node:3821099690,6.6774187,-1.5673112,Agric Stop,,,,no,,no,,,bus_stop,,Agric Stop,,,,,KNUST,,,no,,,,,,
StopPoint:node:3821099691,6.6760699,-1.5650283999999999,Steps,,,,yes,,yes,,,bus_stop,,Steps,,,,,KNUST,,,yes,,,,,,
StopPoint:node:3821099692,6.6756569,-1.5636067999999999,Gate,,,,,,,,,bus_stop,,Gate,,,,,,,,,,,,,,
StopPoint:node:3821099694,6.6758175,-1.5624175999999999,Atta Mills junction,,,,no,,no,,,bus_stop,,Atta Mills junction,,,,,KNUST,,,no,,,,,,
StopPoint:node:3821099695,6.675942699999999,-1.5612523999999999,Asore Junction,,,,no,,no,,,bus_stop,,Asore Junction,,,,,KNUST,,,no,,,,,,
StopPoint:node:3821099697,6.6758935,-1.5589115,Junction,,,,no,,no,,,bus_stop,,Junction,,,,,KNUST,,,no,,,,,,
StopPoint:node:3947389167,6.0669067,1.0148665,arrêt de bus,,,,,,,,,bus_stop,,arrêt de bus,,,,,,,,,,,,,,
StopPoint:node:3997865025,6.0077802,0.5517246,,,,,,,,,,bus_stop,,,,,,,,,,,,,,,,
StopPoint:node:3997865049,6.0587373,0.9927649,,,,,,,,,,bus_stop,,,,,,,,,,,,,,,,
StopPoint:node:3997865715,6.0833599,1.056151,,,,,,,,,,bus_stop,,,,,,,,,,,,,,,,
StopPoint:node:3997865717,6.0875692,1.0640398,,,,,,,,,,bus_stop,,,,,,,,,,,,,,,,
StopPoint:node:3997865728,6.0963106,1.0854645,,,,,,,,,,bus_stop,,,,,,,,,,,,,,,,
StopPoint:node:3997865750,6.1097074,1.1578614999999999,,,,,,,,,,bus_stop,,,,,,,,platform,,,,,,,,
StopPoint:node:3997865773,6.0024869999999995,0.6029013999999999,,,,,,,,,,bus_stop,,,,,,,,platform,,,,,,,,
StopPoint:node:3997865774,6.0435114,0.7180561999999999,,,,,,,,,,bus_stop,,,,,,,,,,,,,,,,
StopPoint:node:3997865789,6.0649543,0.8615919,Abor,,,,,,,,,bus_stop,,Abor,,,,,,,,,,,,,,
StopPoint:node:3997865973,6.097219,0.7603909,,,,,,,,,,bus_stop,,,,,,,,,,,,,,,,
StopPoint:node:3997865985,6.0906711,0.8417479,,,,,,,,,,bus_stop,,,,,,,,,,,,,,,,
StopPoint:node:3997865986,6.0797628999999995,0.8532242,,,,,,,,,,bus_stop,,,,,,,,,,,,,,,,
StopPoint:node:3997865988,6.0624291,0.8652715999999999,,,,,,,,,,bus_stop,,,,,,,,,,,,,,,,
StopPoint:node:3997865990,6.064000399999999,0.9087158,,,,,,,,,,bus_stop,,,,,,,,,,,,,,,,
StopPoint:node:3997866052,6.1199093,1.1801082,,,,,,,,,,bus_stop,,,,,,,,platform,,,,,,,,
StopPoint:node:3997866170,6.0661271,1.0130506,,,,,,,,,,bus_stop,,,,,,,,,,,,,,,,
StopPoint:node:3997866660,6.0720192,0.7396455,,,,,,,,,,bus_stop,,,,,,,,,,,,,,,,
StopPoint:node:3997866704,6.064250899999999,0.9158259,,,,,,,,,,bus_stop,,,,,,,,,,,,,,,,
StopPoint:node:3997866715,6.055134,0.9629,,,,,,,,,,bus_stop,,,,,,,,,,,,,,,,
StopPoint:node:3997866716,6.1015229,1.1003127,,,,,,,,,,bus_stop,,,,,,,,,,,,,,,,
StopPoint:node:3997866718,6.112459299999999,1.1240424,,,,,,,,,,bus_stop,,,,,,,,platform,,,,,,,,
StopPoint:node:3997866761,6.0729079,1.033342,,,,,,,,,,bus_stop,,,,,,,,,,,,,,,,
StopPoint:node:3997866762,6.0802496,1.049058,,,,,,,,,,bus_stop,,,,,,,,,,,,,,,,
StopPoint:node:4150793105,5.620506,-0.17648529999999998,Spanner,,,,yes,yes,,,,bus_stop,,Spanner,,,,,,platform,,yes,survey summer 2017 - AccraMobile3 project,,,,,
StopPoint:node:4150793106,5.6204152999999994,-0.1761345,Spanner,,,,yes,yes,,,,bus_stop,,Spanner,,,,,,platform,,yes,survey summer 2017 - AccraMobile3 project,,,,,
StopPoint:node:4184924189,5.5717215,-0.206208,Paloma,,,,,yes,,,,bus_stop,,Paloma,,,,,,platform,,,survey summer 2017 - AccraMobile3 project,,,,,
StopPoint:node:4184924289,5.5720605999999995,-0.20588679999999998,Paloma,,,,,yes,,,,bus_stop,,Paloma,,,,,,platform,,,survey summer 2017 - AccraMobile3 project,,,,,
StopPoint:node:4198267793,5.5675097,-0.1817192,Danquah Second,,,,,yes,,,,bus_stop,,Danquah Second,,,,,,platform,,,survey summer 2017 - AccraMobile3 project,,,,,
StopPoint:node:4286137016,5.6388495,-0.24243379999999998,St. Johns,,,,,yes,,,,bus_stop,,St. Johns,,,,,,platform,,,survey summer 2017 - AccraMobile3 project,,,,,
StopPoint:node:4286153107,5.5735046,-0.192666,GBC,,,,yes,yes,,,,bus_stop,,GBC,,,,,,platform,,yes,survey summer 2017 - AccraMobile3 project,,,,,
StopPoint:node:4311940489,5.6292703,-0.06676119999999999,Aklika Junction,,,,,,,,,bus_stop,,Aklika Junction,,,,,,,,,,,,,,
StopPoint:node:4311941192,5.6836426,-0.1336375,Asharley Botwe,,,,,,,,,bus_stop,,Asharley Botwe,,,,,,platform,,,,,,,,
StopPoint:node:4350184799,5.739057,-0.013660799999999999,Kakasunanka No.1 Junction,,,,,,,,,bus_stop,,Kakasunanka No.1 Junction,,,,,,,,,,,,,,
StopPoint:node:4350186595,5.7225914,0.0033139,High Tension,,,,,,,,,bus_stop,,High Tension,,,,,,,,,,,,,,
StopPoint:node:4350187526,5.7922004,0.0025569,Appolonia Junction,,,,,,,,,bus_stop,,Appolonia Junction,,,,,,,,,,,,,,
StopPoint:node:4350253589,5.7421827,-0.0129637,Gbetsile Junction,,,,,,,,,bus_stop,,Gbetsile Junction,,,,,,,,,,,,,,
StopPoint:node:4382426259,5.6284053,-0.1767713,Shiashie,,,,,yes,,,,bus_stop,,Shiashie,,,,,,platform,,,survey summer 2017 - AccraMobile3 project,,,,,
StopPoint:node:4400057060,5.1166882,-1.2921706,Science shuttle station,,,,yes,,,,,bus_stop,,Science shuttle station,,,,,,,,yes,,,,,,
StopPoint:node:4400481895,5.7058466,-0.1710339,Adenta Barrier,,,,,yes,,,,bus_stop,,Adenta Barrier,,,,unofficial,,platform,,,survey summer 2017 - AccraMobile3 project,,,,,
StopPoint:node:4400503912,5.6789812,-0.012255199999999999,Community 9,,,,,yes,,,,bus_stop,,Community 9,,,,,,platform,,,survey summer 2017 - AccraMobile3 project,,,,,
StopPoint:node:4400503928,5.5764716,-0.15253809999999998,Palm Wine,,,,,yes,,,,bus_stop,,Palm Wine,,,,,,platform,,,survey summer 2017 - AccraMobile3 project,,,,,
StopPoint:node:4400510889,5.7118554999999995,-0.0490113,Lebanon School Junction,,,,,,,,,bus_stop,,Lebanon School Junction,,,,,,,,,,,,,,
StopPoint:node:4400510902,5.588205299999999,-0.163151,Congo Junction,,,,,yes,,,,bus_stop,,Congo Junction,,,,,,platform,,,survey summer 2017 - AccraMobile3 project,,,,,
StopPoint:node:4420606015,6.0992263,1.095507,,,,,,,,,,bus_stop,,,,,,,,,,,,,,,,
StopPoint:node:4430018894,5.7136854999999995,-0.0501159,Obaatan Junction,,,,,,,,,bus_stop,,Obaatan Junction,,,,,,,,,,,,,,
StopPoint:node:4458149736,5.6528008,-0.2713953,ICGC,,,,,,,,,bus_stop,,ICGC,,,,,,platform,,,survey 2019 - SmartTransit,,,,,
StopPoint:node:4461423012,5.618498499999999,-0.1911487,Dzorwulu Junction,,,,,yes,,,,bus_stop,,Dzorwulu Junction,,,,,,platform,,,survey summer 2017 - AccraMobile3 project,,,,,
StopPoint:node:4462281289,5.5710149,-0.2855065,Mallam Junction,,,,,yes,,,,bus_stop,,Mallam Junction,MallamJunction,,,,,platform,,,survey summer 2017 - AccraMobile3 project,,,,attraction,
StopPoint:node:4471914749,5.0978628,-1.3408806,,,,,,,,,,bus_stop,,,,,,,,,,,,,,,,
StopPoint:node:4515463990,5.096481,-1.3349332,Elmina Beach Resort Junction,,,,,,,,,bus_stop,,Elmina Beach Resort Junction,Elmina Junction,,,,,,,,,,,,,
StopPoint:node:4528236792,5.799462999999999,0.9138398,Dornorgbor Street,,,,,,,,,bus_stop,,Dornorgbor Street,Dornorgbor Street,,,,,,,,,,,,,
StopPoint:node:4528236793,5.7941063,0.82014,"Alakple,Kome Junction",,,,,,,,,bus_stop,,"Alakple,Kome Junction","Alakple,Kome Junction",,,,,,,,,,,,,
StopPoint:node:4528254893,5.7885442,0.8607193,Genui Junction,,,,,,,,,bus_stop,,Genui Junction,,,,,,,,,,,,,,
StopPoint:node:4589572373,5.114777699999999,-1.2842076,,,,,,,,,,bus_stop,,,,,,,,,,,,,,,,
StopPoint:node:4593481227,5.1007267,-1.2849108,,,,,,,,,,bus_stop,,,,,,,,,,,,,,,,
StopPoint:node:4595435458,6.0066253,0.6151763,,,,,,,,,,bus_stop,,,,,,,,platform,,yes,,,,,,
StopPoint:node:4600181749,5.547790399999999,-0.3482181,Bortianor,,,,,yes,,,,bus_stop,,Bortianor,,,,,,platform,,,survey summer 2017 - AccraMobile3 project,,,,,
StopPoint:node:4607246004,6.052306,0.9749104,Anlo-Afiadenyigba Junction,,,,,,,,,bus_stop,,Anlo-Afiadenyigba Junction,,,,,,,,,,,,,,
StopPoint:node:4608132691,6.896799499999999,0.2651926,Gborxome,,,,,,,,,bus_stop,,Gborxome,,,,,,,,,,,,,,
StopPoint:node:4612321664,6.0801224,1.0482935,,,,,,,,,,bus_stop,,,,,,,,,,,,,,,,
StopPoint:node:4612321666,6.1127645,1.124563,,,,,,,,,,bus_stop,,,,,,,,platform,,,,,,,,
StopPoint:node:4612321669,6.0747903,1.0392759,,,,,,,,,,bus_stop,,,,,,,,,,,,,,,,
StopPoint:node:4612321684,6.0713037,1.0286,,,,,,,,,,bus_stop,,,,,,,,,,,,,,,,
StopPoint:node:4612322003,6.0547479,0.9639515,,,,,,,,,,bus_stop,,,,,,,,,,,,,,,,
StopPoint:node:4614139475,6.0836144,1.0564366,,,,,,,,,,bus_stop,,,,,,,,,,,,,,,,
StopPoint:node:4614553192,6.9029644,0.2830667,Avame Beme Junction,,,,,,,,,bus_stop,,Avame Beme Junction,,,,,,,,,,,,,,
StopPoint:node:4614563889,5.4081123,-0.9164038999999999,Ampia,,,,,,,,,bus_stop,,Ampia,Ampia,,,,,,,,,,,,,
StopPoint:node:4614565290,5.3101835,-0.8891328,Ajumako,,,,,,,,,bus_stop,,Ajumako,Ajumako,,,,,,,,,,,,,
StopPoint:node:4615061389,6.9105259,0.2629439,Avame Beme,,,,,,,,,bus_stop,,Avame Beme,Avame Beme,,,,,,,,,,,,,
StopPoint:node:4674707791,10.772625999999999,-0.8561413999999999,Aboley Junction,,,,,,,,,bus_stop,,Aboley Junction,Aboley Junction,,,,Aboley,,,,,,,,,
StopPoint:node:4710912590,5.616029,-0.2483251,High Tension,,,,no,yes,,,,bus_stop,,High Tension,High Tention,,,,,platform,,no,survey summer 2017 - AccraMobile3 project,,,,,
StopPoint:node:4727344093,6.1056012,0.0767918,Kpong to Kumasi,,,,,,,,,bus_stop,,Kpong to Kumasi,Kpong to Kumasi,,,,,,,,,,,,,
StopPoint:node:4739843023,5.5655092,-0.288941,McCarthy Junction,,,,,yes,,,,bus_stop,,McCarthy Junction,McCarthy Junction,,,,,platform,,,survey summer 2017 - AccraMobile3 project,,,,,
StopPoint:node:4739884021,5.5698342,-0.285949,Mallam Junction,,,,,yes,,,,bus_stop,,Mallam Junction,,,,,,platform,,,survey summer 2017 - AccraMobile3 project,,,,,
StopPoint:node:4740601928,5.5508216,-0.35591259999999997,Mile Eleven,,,,,yes,,,,bus_stop,,Mile Eleven,,,,,,platform,,,survey summer 2017 - AccraMobile3 project,,,,,
StopPoint:node:4740601929,5.5474958999999995,-0.34813459999999996,Bortianor,,,,,yes,,,,bus_stop,,Bortianor,,,,,,platform,,,survey summer 2017 - AccraMobile3 project,,,,,
StopPoint:node:4740602036,5.579676399999999,-0.2648468,Odorkor,,,,,yes,,,,bus_stop,,Odorkor,,,,,,platform,,,survey summer 2017 - AccraMobile3 project,,,,,
StopPoint:node:4740602037,5.6518837,-0.1799915,Legon Second,,,,yes,yes,,,,bus_stop,,Legon Second,,,,,,platform,,yes,survey summer 2017 - AccraMobile3 project,,,,,
StopPoint:node:4740602043,5.6481575,-0.1798695,Legon Second,,,,no,yes,,,,bus_stop,,Legon Second,Legon Bus Stop,,,,,platform,,no,survey summer 2017 - AccraMobile3 project,,,,,
StopPoint:node:4740602044,5.546819,-0.3819991,Tuba,,,,,yes,,,,bus_stop,,Tuba,,,,,,platform,,yes,survey summer 2017 - AccraMobile3 project,,,,,
StopPoint:node:4740682125,5.569075799999999,-0.2861767,Mallam Junction,,,,,yes,,,,bus_stop,,Mallam Junction,Mallam Junction Bus Stop,,,,,platform,,,survey summer 2017 - AccraMobile3 project,,,,,
StopPoint:node:4740682127,5.5511501,-0.3292343,Weija Barrier,,,,,yes,,,,bus_stop,,Weija Barrier,,,,,,platform,,,survey summer 2017 - AccraMobile3 project,,,,,
StopPoint:node:4741673124,6.6887944,-1.5985247999999999,Junction,,,,,,,,,bus_stop,,Junction,Junction,,,,,platform,,,,,,,,
StopPoint:node:4752766522,5.5873886,-0.2717172,Been To,,,,,yes,,,,bus_stop,,Been To,,,,,,platform,,,survey summer 2017 - AccraMobile3 project,,,,,
StopPoint:node:4752773021,5.5583351,-0.2971831,Mendskrom,,,,,yes,,,,bus_stop,,Mendskrom,,,,,,platform,,,survey summer 2017 - AccraMobile3 project,,,,,
StopPoint:node:4767597523,5.783195,-2.0880883,Wasa Akropong,,,,,,,,,bus_stop,,Wasa Akropong,Wasa Akropong,,,,,,,,,,,,,
StopPoint:node:4774302296,5.2961225999999995,-2.0007961,Nkamponanse,,,,,,,,,bus_stop,,Nkamponanse,,,,,,,,,,,,,,
StopPoint:node:4833457621,6.745355,0.6234782999999999,Atikpui,,,,,,,,,bus_stop,,Atikpui,Atikpui,,,,,,,,,,,,,
StopPoint:node:4910885489,5.6360002,-2.0980037,,,,,,,,,,bus_stop,,,,,,,,,,,,,,,,
StopPoint:node:4910911577,5.638357699999999,-2.0997849,,,,,,,,,,bus_stop,,,,,,,,,,,,,,,,
StopPoint:node:4917524921,5.6970177,-1.2768038,Graphic Stand,,,,,,,,,bus_stop,,Graphic Stand,Graphic Stand,,,,Uncle Ken,,,,,,,,,
StopPoint:node:4937184135,6.6633428,-1.6021404,,,,,,,,,,bus_stop,,,,,,,,,,,,,,,,
StopPoint:node:4941816208,4.911270399999999,-1.7827818,,,,,,,,,,bus_stop,,,,,,,,,,,,,,,,
StopPoint:node:4955246521,6.689869799999999,-1.559007,Amangoase,,,,,,,,,bus_stop,,Amangoase,Amangoase,,,,,,,,,,,,,
StopPoint:node:4957011721,5.2955507,-2.0013064,Nkamponanse,,,,no,,,,,bus_stop,,Nkamponanse,,,,,,,,no,,,,,,
StopPoint:node:4962755834,5.1006559,-1.2843301,University of Cape Coast,,,,,,,,,bus_stop,,University of Cape Coast,,,,,,,,,,,,,,
StopPoint:node:4962756444,5.0913482,-1.4477328999999999,,,,,,,,,,bus_stop,,,,,,,,,,,,,,,,
StopPoint:node:4971241272,5.1150157,-1.2619866,,,,,,,,,,bus_stop,,,,,,,,,,,,,,,,
StopPoint:node:4971250982,5.6240242,-0.17384629999999998,Tetteh Quarshie / Roundabout,,Accra Mall Junction,,no,yes,,,,bus_stop,,Tetteh Quarshie / Roundabout,,,,unofficial,,platform,,no,survey summer 2017 - AccraMobile3 project,,,,,
StopPoint:node:4971270883,6.0069396,0.616522,,,,,,,,,,bus_stop,,,,,,,,,,,,,,,,
StopPoint:node:4971270884,6.0289511,0.6995549999999999,,,,,,,,,,bus_stop,,,,,,,,,,,,,,,,
StopPoint:node:4971270886,6.091949,1.0725795999999999,Nogokpo,,,,,,,,,bus_stop,,Nogokpo,,,,,,,,,,,,,,
StopPoint:node:4972315121,5.653607699999999,-0.1807077,Legon First,,,,no,yes,,,,bus_stop,,Legon First,,,,,,platform,,no,survey summer 2017 - AccraMobile3 project,,,,,
StopPoint:node:4972575680,5.6560635999999995,-0.1801477,Power House,,,,,yes,,,,bus_stop,,Power House,,,,,,platform,,,survey summer 2017 - AccraMobile3 project,,,,,
StopPoint:node:4972695858,5.667296899999999,-0.18728999999999998,Agbogba Junction,,,,yes,yes,,,,bus_stop,,Agbogba Junction,,,,,,platform,,yes,survey summer 2017 - AccraMobile3 project,,,,,
StopPoint:node:4972894711,5.573927599999999,-0.27875659999999997,Mallam Market,,,,,yes,,,,bus_stop,,Mallam Market,,,,,,platform,,,survey summer 2017 - AccraMobile3 project,,,,,
StopPoint:node:4974193122,5.5980107,-0.17951129999999998,Opeibea First,,,,,yes,,,,bus_stop,,Opeibea First,,,,,,platform,,,survey summer 2017 - AccraMobile3 project,,,,,
StopPoint:node:4974193123,5.587623,-0.18310669999999998,37 Hospital,,,,,yes,,,,bus_stop,,37 Hospital,,,,,,platform,,,survey summer 2017 - AccraMobile3 project,,,,,
StopPoint:node:4974193124,5.5707147,-0.1912352,Sankara,,,,,yes,,,,bus_stop,,Sankara,,,,,,platform,,,,,,,,
StopPoint:node:4974193125,5.5605037,-0.19662739999999998,Ridge,,,,,yes,,,,bus_stop,,Ridge,,,,,,platform,,yes,survey summer 2017 - AccraMobile3 project,,,,,
StopPoint:node:4974194650,5.6160691,-0.17609709999999998,Shangrila,,,,yes,yes,,,,bus_stop,,Shangrila,,,,,,platform,,yes,survey summer 2017 - AccraMobile3 project,,,,,
StopPoint:node:4974195501,5.573425299999999,-0.1894351,Sankara,,,,no,yes,,,,bus_stop,,Sankara,,,,,,platform,,yes,,,,,,no
StopPoint:node:4974195502,5.5879145999999995,-0.18261139999999998,37 Hospital,,,,yes,yes,,,,bus_stop,,37 Hospital,,,,,,platform,,yes,survey summer 2017 - AccraMobile3 project,,,,,
StopPoint:node:4977864532,5.589946299999999,-0.1812075,,,,,,yes,,,,bus_stop,,,,,,,,platform,,,survey summer 2017 - AccraMobile3 project,,,,,
StopPoint:node:4977880923,5.5919333,-0.1806082,License Office,,,,yes,yes,,,,bus_stop,,License Office,,,,,,platform,,yes,survey summer 2017 - AccraMobile3 project,,,,,
StopPoint:node:4977886631,5.6007052999999996,-0.1786398,Opeibea Second,,,,yes,yes,,,,bus_stop,,Opeibea Second,,,,,,platform,,yes,survey summer 2017 - AccraMobile3 project,,,,,
StopPoint:node:4977897982,5.5963571,-0.1796072,Opeibea First,,,,,yes,,,,bus_stop,,Opeibea First,,,,,,platform,,,survey summer 2017 - AccraMobile3 project,,,,,
StopPoint:node:4977925525,5.6171912,-0.1759131,Shangrila,,,,,yes,,,,bus_stop,,Shangrila,,,,,,platform,,,survey summer 2017 - AccraMobile3 project,,,,,
StopPoint:node:4977927743,5.604192599999999,-0.1781224,Airport Second,,,,no,no,,,,bus_stop,,Airport Second,,,,,,platform,,yes,survey summer 2017 - AccraMobile3 project,,,,,
StopPoint:node:4977985923,5.6673789999999995,-0.1880947,Agbogba Junction,,,,yes,yes,,,,bus_stop,,Agbogba Junction,,,,,,platform,,yes,survey summer 2017 - AccraMobile3 project,,,,,
StopPoint:node:4979349924,5.5361606,-0.2264147,Korle Bu,,,,,yes,yes,,,bus_stop,,Korle Bu,,,,,,platform,,yes,survey summer 2017 - AccraMobile3 project,,,,,
StopPoint:node:4979371653,5.614281399999999,-0.07188449999999999,Junction Mall,,,,,,,,,bus_stop,,Junction Mall,,,,,,platform,,,survey summer 2017 - AccraMobile3 project,,,,,
StopPoint:node:4979396673,5.536120599999999,-0.2270517,Korle Bu,,,,,yes,yes,,,bus_stop,,Korle Bu,,,,,,platform,,yes,survey summer 2017 - AccraMobile3 project,,,,,
StopPoint:node:4980841285,5.6072824,-0.2481677,Abeka Lapaz,,,,,yes,,,,bus_stop,,Abeka Lapaz,,,,,,platform,,,survey summer 2017 - AccraMobile3 project,,,,,
StopPoint:node:4980841287,5.6082043,-0.245219,Nii Boi Town Junction,,,,,yes,,,,bus_stop,,Nii Boi Town Junction,,,,,,platform,,,survey summer 2017 - AccraMobile3 project,,,,,
StopPoint:node:4980841288,5.6087099,-0.2423735,Bambolino,,,,,yes,,,,bus_stop,,Bambolino,,,,,,platform,,,survey summer 2017 - AccraMobile3 project,,,,,
StopPoint:node:4980841289,5.6090177,-0.24051,Lapaz Market,,,,,yes,,,,bus_stop,,Lapaz Market,,,Might also be called ashawo market,,,platform,,,survey summer 2017 - AccraMobile3 project,,,,,
StopPoint:node:4980841290,5.6095454,-0.2380849,Fly Top,,Overhead,,,yes,,,,bus_stop,,Fly Top,,,,,,platform,,,survey summer 2017 - AccraMobile3 project,,,,,
StopPoint:node:4980841291,5.6115673,-0.23131169999999998,Akweteyman,,,,,yes,,,,bus_stop,,Akweteyman,,,,,,platform,,,survey summer 2017 - AccraMobile3 project,,,,,
StopPoint:node:4980841293,5.6132664,-0.22553949999999998,Achimota Overhead,,,,no,yes,,,,bus_stop,,Achimota Overhead,,,,,,platform,,no,survey summer 2017 - AccraMobile3 project,,,,,
StopPoint:node:4980841295,5.6099334,-0.21091959999999998,Abelenkpe Junction,,,,,yes,,,,bus_stop,,Abelenkpe Junction,,,,,,platform,,,survey summer 2017 - AccraMobile3 project,,,,,
StopPoint:node:4980841296,5.6073118,-0.20701019999999998,Dzorwulu Junction,,,,,yes,,,,bus_stop,,Dzorwulu Junction,,,,,,platform,,,survey summer 2017 - AccraMobile3 project,,,,,
StopPoint:node:4980841297,5.6051616,-0.2036896,Ebony,,,,,yes,,,,bus_stop,,Ebony,,,,,,platform,,,survey summer 2017 - AccraMobile3 project,,,,,
StopPoint:node:4980841298,5.6029352999999995,-0.2003114,Roman Ridge,,,,,yes,,,,bus_stop,,Roman Ridge,,,,,,platform,,,survey summer 2017 - AccraMobile3 project,,,,,
StopPoint:node:4980841299,5.593450799999999,-0.18518099999999998,Culture,,,,,yes,,,,bus_stop,,Culture,,,,,,platform,,,survey summer 2017 - AccraMobile3 project,,,,,
StopPoint:node:4980841300,5.5888594,-0.17959799999999998,37,,,,,yes,,,,bus_stop,,37,,,,,,platform,,,survey july 2017 - AccraMobile3 project,,,,,
StopPoint:node:4980974730,5.5436043,-0.23992629999999998,Korle Bu Junction,,,,,yes,,,,bus_stop,,Korle Bu Junction,,,,,,platform,,,survey summer 2017 - AccraMobile3 project,,,,,
StopPoint:node:4980974731,5.5640960999999995,-0.23586759999999998,Kaneshie,,,,,yes,,,,bus_stop,,Kaneshie,,,,,,platform,,,survey summer 2017 - AccraMobile3 project,,,,,
StopPoint:node:4980974733,5.5632117,-0.2376365,Dansoman Junction,,,,,yes,,,,bus_stop,,Dansoman Junction,,,,,,platform,,,survey summer 2017 - AccraMobile3 project,,,,,
StopPoint:node:4980974734,5.561402,-0.23872079999999998,Asoredan ho,,,,,yes,,,,bus_stop,,Asoredan ho,,,,,,platform,,,survey summer 2017 - AccraMobile3 project,,,,,
StopPoint:node:4980974735,5.5577933999999996,-0.2397888,Zongo Junction,,,,,yes,,,,bus_stop,,Zongo Junction,,,,,,platform,,,survey summer 2017 - AccraMobile3 project,,,,,
StopPoint:node:4980974736,5.5562746999999995,-0.2401432,Kasoa Station,,,,,yes,,,,bus_stop,,Kasoa Station,,,,,,platform,,,survey summer 2017 - AccraMobile3 project,,,,,
StopPoint:node:4980974737,5.5535038,-0.24012889999999998,Pipeier Naa,,,,,yes,,,,bus_stop,,Pipeier Naa,,,,,,platform,,,survey summer 2017 - AccraMobile3 project,,,,,
StopPoint:node:4980974738,5.5511073,-0.2401201,Black Smith,,,,,yes,,,,bus_stop,,Black Smith,,,,,,platform,,,survey summer 2017 - AccraMobile3 project,,,,,
StopPoint:node:4980974739,5.5480700999999994,-0.24013269999999998,Radio Gold,,,,,yes,,,,bus_stop,,Radio Gold,,,,,,platform,,,survey summer 2017 - AccraMobile3 project,,,,,
StopPoint:node:4980974741,5.5409656,-0.2392821,Salvation Army,,,,,yes,,,,bus_stop,,Salvation Army,,,,,,platform,,,survey summer 2017 - AccraMobile3 project,,,,,
StopPoint:node:4980974742,5.538602699999999,-0.23871779999999998,Sempe Second,,,,,yes,,,,bus_stop,,Sempe Second,,,,,,platform,,,survey summer 2017 - AccraMobile3 project,,,,,
StopPoint:node:4980974743,5.537001399999999,-0.2383399,Sempe First,,,,,yes,,,,bus_stop,,Sempe First,,,,,,platform,,,survey summer 2017 - AccraMobile3 project,,,,,
StopPoint:node:4980974744,5.5346741,-0.23776609999999998,Mamprobi Station,,,,,yes,,,,bus_stop,,Mamprobi Station,,,,,,platform,,,survey summer 2017 - AccraMobile3 project,,,,,
StopPoint:node:4980974745,5.53299,-0.2373786,Shell,,,,,yes,,,,bus_stop,,Shell,,,,,,platform,,,survey summer 2017 - AccraMobile3 project,,,,,
StopPoint:node:4980974746,5.5321587999999995,-0.23723699999999998,Market Junction,,,,,yes,,,,bus_stop,,Market Junction,,,,,,platform,,,survey summer 2017 - AccraMobile3 project,,,,,
StopPoint:node:4980974747,5.5318853,-0.2352626,Market,,,,,yes,,,,bus_stop,,Market,,,,,,platform,,,survey summer 2017 - AccraMobile3 project,,,,,
StopPoint:node:4980974748,5.5312256,-0.2322283,Shalom,,,,,yes,,,,bus_stop,,Shalom,,,,,,platform,,,survey summer 2017 - AccraMobile3 project,,,,,
StopPoint:node:4980974749,5.531473999999999,-0.232268,Asoredan ho,,,,,yes,,,,bus_stop,,Asoredan ho,,,,,,platform,,,survey summer 2017 - AccraMobile3 project,,,,,
StopPoint:node:4980974751,5.5308527,-0.2370484,Banku Junction,,,,,yes,,,,bus_stop,,Banku Junction,,,,,,platform,,,survey summer 2017 - AccraMobile3 project,,,,,
StopPoint:node:4980974752,5.5283443,-0.2365225,White House,,,,,yes,,,,bus_stop,,White House,,,,,,platform,,,survey summer 2017 - AccraMobile3 project,,,,,
StopPoint:node:4980974753,5.5391036,-0.23890319999999998,Sempe First,,,,,yes,,,,bus_stop,,Sempe First,,,,,,platform,,,survey summer 2017 - AccraMobile3 project,,,,,
StopPoint:node:4980974754,5.5529372,-0.2402048,Pipeier Naa,,,,,yes,,,,bus_stop,,Pipeier Naa,,,,,,platform,,,survey summer 2017 - AccraMobile3 project,,,,,
StopPoint:node:4980974757,5.548633199999999,-0.2402106,Radio Gold,,,,,yes,,,,bus_stop,,Radio Gold,,,,,,platform,,,survey summer 2017 - AccraMobile3 project,,,,,
StopPoint:node:4980974758,5.5342554999999996,-0.2377406,Mamprobi Station,,,,,yes,,,,bus_stop,,Mamprobi Station,,,,,,platform,,,survey summer 2017 - AccraMobile3 project,,,,,
StopPoint:node:4980974759,5.5320138,-0.23727499999999999,Market,,,,,yes,,,,bus_stop,,Market,,,,,,platform,,,survey summer 2017 - AccraMobile3 project,,,,,
StopPoint:node:4980974760,5.5416466,-0.2395311,Salvation Army,,,,,yes,,,,bus_stop,,Salvation Army,,,,,,platform,,,survey summer 2017 - AccraMobile3 project,,,,,
StopPoint:node:4980974761,5.5575567999999995,-0.23992149999999998,Zongo Junction,,,,,yes,,,,bus_stop,,Zongo Junction,,,,,,platform,,,survey summer 2017 - AccraMobile3 project,,,,,
StopPoint:node:4980974762,5.5295993,-0.2367828,Duanase,,,,,yes,,,,bus_stop,,Duanase,,,,,,platform,,,survey summer 2017 - AccraMobile3 project,,,,,
StopPoint:node:4980974763,5.5280014,-0.23425769999999999,Hotel Junction,,,,,yes,,,,bus_stop,,Hotel Junction,,,,,,platform,,,survey summer 2017 - AccraMobile3 project,,,,,
StopPoint:node:4980974764,5.5367806999999996,-0.23835109999999998,Sempe Second,,,,,yes,,,,bus_stop,,Sempe Second,,,,,,platform,,,survey summer 2017 - AccraMobile3 project,,,,,
StopPoint:node:4980974765,5.550834699999999,-0.24020809999999998,Black Smith,,,,,yes,,,,bus_stop,,Black Smith,,,,,,platform,,,survey summer 2017 - AccraMobile3 project,,,,,
StopPoint:node:4980974766,5.5276285,-0.2361356,White House,,,,,yes,,,,bus_stop,,White House,,,,,,platform,,,survey summer 2017 - AccraMobile3 project,,,,,
StopPoint:node:4980974767,5.528899,-0.2317564,Ejas,,,,,yes,,,,bus_stop,,Ejas,,,,,,platform,,,survey summer 2017 - AccraMobile3 project,,,,,
StopPoint:node:4980974768,5.5335068,-0.23756069999999999,Mamprobi Shell,,,,,yes,,,,bus_stop,,Mamprobi Shell,,,,,,platform,,,survey summer 2017 - AccraMobile3 project,,,,,
StopPoint:node:4981090360,5.621493,-0.2259058,Achimota New Station,,,,,yes,,,,bus_stop,,Achimota New Station,,,,,,platform,,,,,,,,
StopPoint:node:4981090361,5.6275004,-0.2191415,Achimota Hospital,,,,,yes,,,,bus_stop,,Achimota Hospital,,,,,,platform,,,survey summer 2017 - AccraMobile3 project,,,,,
StopPoint:node:4981090362,5.6501681,-0.1789634,Legon Station,,,,,yes,,,,bus_stop,,Legon Station,,,,,,platform,,,survey summer 2017 - AccraMobile3 project,,,,,
StopPoint:node:4981090363,5.640705199999999,-0.193736,Ayido,,,,,yes,,,,bus_stop,,Ayido,,,,,,platform,,,survey summer 2017 - AccraMobile3 project,,,,,
StopPoint:node:4981090364,5.6415839,-0.1979135,Legon Barrier,,,,,yes,,,,bus_stop,,Legon Barrier,,,,,,platform,,,survey summer 2017 - AccraMobile3 project,,,,,
StopPoint:node:4981090365,5.6353879,-0.21465199999999998,Christian Village,,,,,yes,,,,bus_stop,,Christian Village,,,,,,platform,,,survey summer 2017 - AccraMobile3 project,,,,,
StopPoint:node:4981090366,5.6220881,-0.2192451,Achimota Club House,,,,,yes,,,,bus_stop,,Achimota Club House,,,,,,platform,,,survey summer 2017 - AccraMobile3 project,,,,,
StopPoint:node:4981090367,5.6390987,-0.20883079999999998,Forestry Commission,,,,,yes,,,,bus_stop,,Forestry Commission,,,,,,platform,,,survey summer 2017 - AccraMobile3 project,,,,,
StopPoint:node:4981090368,5.6413781,-0.2052399,GIMPA,,,,,yes,,,,bus_stop,,GIMPA,,,,,,platform,,,survey summer 2017 - AccraMobile3 project,,,,,
StopPoint:node:4981090369,5.6301744,-0.21944329999999998,Golf Park,,,,,yes,,,,bus_stop,,Golf Park,,,,,,platform,,,survey summer 2017 - AccraMobile3 project,,,,,
StopPoint:node:4981090370,5.6372539999999995,-0.2132336,Kisseman Junction,,,,,yes,,,,bus_stop,,Kisseman Junction,,,,,,platform,,,survey summer 2017 - AccraMobile3 project,,,,,
StopPoint:node:4981090372,5.6405525,-0.1792475,Legon Traffic Light,,,,,yes,,,,bus_stop,,Legon Traffic Light,,,,,,platform,,,survey summer 2017 - AccraMobile3 project,,,,,
StopPoint:node:4981090374,5.6413411,-0.17809139999999998,Okponglo,,,,yes,yes,,,,bus_stop,,Okponglo,,,,,,platform,,yes,survey summer 2017 - AccraMobile3 project,,,,,
StopPoint:node:4981090375,5.6240003,-0.2188871,PWD,,,,,yes,,,,bus_stop,,PWD,,,,,,platform,,,survey summer 2017 - AccraMobile3 project,,,,,
StopPoint:node:4981090376,5.642691999999999,-0.18994419999999998,Legon Primary School,,,,,yes,,,,bus_stop,,Legon Primary School,,,,,,platform,,,survey summer 2017 - AccraMobile3 project,,,,,
StopPoint:node:4981090377,5.6381796,-0.2108582,Airways Junction,,,,,yes,,,,bus_stop,,Airways Junction,,,,,,platform,,,survey summer 2017 - AccraMobile3 project,,,,,
StopPoint:node:4981090379,5.6378831,-0.21189139999999998,Pure Fire,,,,,yes,,,,bus_stop,,Pure Fire,,,,,,platform,,,survey summer 2017 - AccraMobile3 project,,,,,
StopPoint:node:4981090380,5.6489286,-0.17950159999999998,Legon First,,,,,yes,,,,bus_stop,,Legon First,,,,,,platform,,,survey summer 2017 - AccraMobile3 project,,,,,
StopPoint:node:4981090381,5.640998199999999,-0.1953423,18,,,,,yes,,,,bus_stop,,18,,,,,,platform,,,survey summer 2017 - AccraMobile3 project,,,,,
StopPoint:node:4982950468,5.587359,-0.1746428,El-Wak Stadium,,,,no,yes,,,,bus_stop,,El-Wak Stadium,,,,,,platform,,no,survey summer 2017 - AccraMobile3 project,,,,,
StopPoint:node:4982950469,5.588576,-0.1803082,37 Last Stop,,,,,yes,,,,bus_stop,,37 Last Stop,,,,,,platform,,,survey summer 2017 - AccraMobile3 project,,,,,
StopPoint:node:4982950470,5.5902669,-0.18289919999999998,37 First Gate,,,,,yes,,,,bus_stop,,37 First Gate,,,,,,platform,,,survey summer 2017 - AccraMobile3 project,,,,,
StopPoint:node:4982950471,5.593304,-0.1852414,Culture,,,,,yes,,,,bus_stop,,Culture,,,,,,platform,,,survey summer 2017 - AccraMobile3 project,,,,,
StopPoint:node:4982950472,5.594769599999999,-0.18852439999999998,Kankudi,,,,no,yes,,,,bus_stop,,Kankudi,,,,,,platform,,no,survey summer 2017 - AccraMobile3 project,,,,,
StopPoint:node:4982950473,5.598241499999999,-0.1934691,Accra Girls,,,,,yes,,,,bus_stop,,Accra Girls,,,,,,platform,,,survey summer 2017 - AccraMobile3 project,,,,,
StopPoint:node:4982950474,5.5998915,-0.19594879999999998,Pig Farm Junction,,,,,yes,,,,bus_stop,,Pig Farm Junction,,,,,,platform,,,survey summer 2017 - AccraMobile3 project,,,,,
StopPoint:node:4982950475,5.6048206,-0.20351529999999998,Ebony,,,,,yes,,,,bus_stop,,Ebony,,,,,,platform,,,survey summer 2017 - AccraMobile3 project,,,,,
StopPoint:node:4982950476,5.6071496,-0.2070947,Dzorwulu Junction,,,,,yes,,,,bus_stop,,Dzorwulu Junction,,,,,,platform,,,survey summer 2017 - AccraMobile3 project,,,,,
StopPoint:node:4982950477,5.610252,-0.211521,Abelenkpe Junction,,,,,yes,,,,bus_stop,,Abelenkpe Junction,,,,,,platform,,,survey summer 2017 - AccraMobile3 project,,,,,
StopPoint:node:4982950478,5.614541699999999,-0.2164891,CP,,,,yes,yes,,,,bus_stop,,CP,,,,,,platform,,yes,survey summer 2017 - AccraMobile3 project,,,,,
StopPoint:node:4982950479,5.6126651999999995,-0.2263945,Achimota Overhead,,,,no,yes,,,,bus_stop,,Achimota Overhead,,,,,,platform,,yes,survey summer 2017 - AccraMobile3 project,,,,,
StopPoint:node:4982950480,5.607738899999999,-0.24523699999999998,Abeka Lapaz (Nii Boi),,,,,yes,,,,bus_stop,,Abeka Lapaz (Nii Boi),,,,,,platform,,,survey summer 2017 - AccraMobile3 project,,,,,
StopPoint:node:4983237008,5.6080792,-0.249778,Lapaz Station,,,,,yes,,,,bus_stop,,Lapaz Station,,,,,,platform,,,survey summer 2017 - AccraMobile3 project,,,,,
StopPoint:node:4983237009,5.6094963,-0.2508921,Lapaz Last stop,,,,,yes,,,,bus_stop,,Lapaz Last stop,,,,,,platform,,,survey summer 2017 - AccraMobile3 project,,,,,
StopPoint:node:4983237010,5.606580999999999,-0.2549457,Lapaz Community Junction,,,,,yes,,,,bus_stop,,Lapaz Community Junction,,,,,,platform,,,survey summer 2017 - AccraMobile3 project,,,,,
StopPoint:node:4983237011,5.6074265,-0.2571886,Lapaz Market,,,,,yes,,,,bus_stop,,Lapaz Market,,,,,,platform,,,survey summer 2017 - AccraMobile3 project,,,,,
StopPoint:node:4983237012,5.6072264,-0.2586053,Tabora Number 3,,,,,yes,,,,bus_stop,,Tabora Number 3,,,,,,platform,,,survey summer 2017 - AccraMobile3 project,,,,,
StopPoint:node:4983237013,5.6060498,-0.2604171,Tabora Number2,,,,,yes,,,,bus_stop,,Tabora Number2,,,,,,platform,,,survey summer 2017 - AccraMobile3 project,,,,,
StopPoint:node:4983237014,5.606501,-0.260941,Ahenfie,,,,,yes,,,,bus_stop,,Ahenfie,,,,,,platform,,,survey summer 2017 - AccraMobile3 project,,,,,
StopPoint:node:4983237015,5.6074933,-0.2623911,Race Course Blue Gate,,,,,yes,,,,bus_stop,,Race Course Blue Gate,,,,,,platform,,,survey summer 2017 - AccraMobile3 project,,,,,
StopPoint:node:4983237016,5.608276099999999,-0.2632488,School Junction Race Course,,,,no,yes,,,,bus_stop,,School Junction Race Course,,,,,,platform,,,survey summer 2017 - AccraMobile3 project,,,,,
StopPoint:node:4983237017,5.6090589,-0.2640514,Container Race Course,,,,,yes,,,,bus_stop,,Container Race Course,,,,,,platform,,,survey summer 2017 - AccraMobile3 project,,,,,
StopPoint:node:4983237018,5.6102492999999996,-0.2653242,Attah Junction,,,,,yes,,,,bus_stop,,Attah Junction,,,,,,platform,,,survey summer 2017 - AccraMobile3 project,,,,,
StopPoint:node:4983237019,5.611275399999999,-0.2661016,Rasta Junction,,,,,yes,,,,bus_stop,,Rasta Junction,,,,,,platform,,,survey summer 2017 - AccraMobile3 project,,,,,
StopPoint:node:4983237020,5.6119558,-0.267781,Gyedu Junction,,,,,yes,,,,bus_stop,,Gyedu Junction,,,,,,platform,,,survey summer 2017 - AccraMobile3 project,,,,,
StopPoint:node:4983245621,5.6141046,-0.27143079999999997,Race Course,,,,,yes,,,,bus_stop,,Race Course,,,,,,platform,,,survey summer 2017 - AccraMobile3 project,,,,,
StopPoint:node:4984741723,5.6098268,-0.17658469999999998,Airport Second,,,,no,yes,,,,bus_stop,,Airport Second,,,,,,platform,,no,survey summer 2017 - AccraMobile3 project,,,,,no
StopPoint:node:4984742321,5.5762059,-0.1879467,Flagstaff House,,,,no,yes,,,,bus_stop,,Flagstaff House,,,,,,platform,,yes,survey summer 2017 - AccraMobile3 project,,,,,no
StopPoint:node:4985315422,5.5380443999999995,-0.2217799,Accra Royal,,,,no,yes,,,,bus_stop,,Accra Royal,,,check name. Maybe Accra Royal or Junction,,,platform,,yes,survey summer 2017 - AccraMobile3 project,,,,,
StopPoint:node:4988349723,5.6598597999999996,-0.1666827,UPS,,,,yes,yes,,,,bus_stop,,UPS,,,,,,platform,,yes,,,,,,
StopPoint:node:4989358232,5.5695562,-0.24263189999999998,First Light,,,,no,yes,,,,bus_stop,,First Light,,,This is South Odorkor,,,platform,,no,,,,,,
StopPoint:node:4989366228,5.569058699999999,-0.21820209999999998,Circle Neoplan Station,,,,yes,yes,,,,bus_stop,,Circle Neoplan Station,,,,,,platform,,yes,survey summer 2017 - AccraMobile3 project,,,,,
StopPoint:node:4990070158,5.5697472999999995,-0.2167595,Circle,,,,,yes,,,,bus_stop,,Circle,,,,,,platform,,,,,,,,
StopPoint:node:4990070160,5.575632499999999,-0.21672539999999998,Circle Asoredanho,,,,,yes,,,,bus_stop,,Circle Asoredanho,,,name=Avenor?,,,platform,,,survey summer 2017 - AccraMobile3 project,,,,,
StopPoint:node:4990070161,5.5839552,-0.21704009999999999,Caprice,,,,,yes,,,,bus_stop,,Caprice,,,,,,platform,,,survey summer 2017 - AccraMobile3 project,,,,,
StopPoint:node:4990070162,5.5879414999999995,-0.2181552,Alajo,,,,,yes,,,,bus_stop,,Alajo,,,,,,platform,,,survey summer 2017 - AccraMobile3 project,,,,,
StopPoint:node:4990070163,5.5951809,-0.22195759999999998,CAT,,,,no,yes,,,,bus_stop,,CAT,,,,,,platform,,no,survey summer 2017 - AccraMobile3 project,,,,,
StopPoint:node:4990070164,5.5989245,-0.22396549999999998,Abeka Junction,,,,,yes,,,,bus_stop,,Abeka Junction,,,,,,platform,,,survey summer 2017 - AccraMobile3 project,,,,,
StopPoint:node:4990070165,5.599395899999999,-0.22458689999999998,Abeka Junction Curve,,,,,yes,,,,bus_stop,,Abeka Junction Curve,,,,,,platform,,,survey summer 2017 - AccraMobile3 project,,,,,
StopPoint:node:4990070166,5.598006499999999,-0.2333215,Total,,,,,yes,,,,bus_stop,,Total,,,,,,platform,,,survey summer 2017 - AccraMobile3 project,,,,,
StopPoint:node:4990070167,5.5995687,-0.2368642,Adom Junction,,,,,yes,,,,bus_stop,,Adom Junction,,,,,,platform,,,survey summer 2017 - AccraMobile3 project,,,,,
StopPoint:node:4990070168,5.5998619,-0.2376645,Free Pipe,,,,,yes,,,,bus_stop,,Free Pipe,,,,,,platform,,,survey summer 2017 - AccraMobile3 project,,,,,
StopPoint:node:4990070169,5.6008086,-0.2393011,Abeka Main Market,,,,,yes,,,,bus_stop,,Abeka Main Market,,,,,,platform,,,survey summer 2017 - AccraMobile3 project,,,,,
StopPoint:node:4990070170,5.601748,-0.24079289999999998,Fadama,,,,,yes,,,,bus_stop,,Fadama,,,,,,platform,,,survey summer 2017 - AccraMobile3 project,,,,,
StopPoint:node:4990070171,5.6027454,-0.2419788,Eno,,,,,yes,,,,bus_stop,,Eno,,,,,,platform,,,survey summer 2017 - AccraMobile3 project,,,,,
StopPoint:node:4990070172,5.6031976,-0.2427124,Fadama Junction,,,,,yes,,,,bus_stop,,Fadama Junction,,,,,,platform,,,survey summer 2017 - AccraMobile3 project,,,,,
StopPoint:node:4990070173,5.6040434999999995,-0.2439488,Abeka Post Office,,,,,yes,,,,bus_stop,,Abeka Post Office,,,,,,platform,,,survey summer 2017 - AccraMobile3 project,,,,,
StopPoint:node:4990070174,5.6064091,-0.2490744,Abeka Lapaz,,,,,yes,,,,bus_stop,,Abeka Lapaz,,,,,,platform,,,survey summer 2017 - AccraMobile3 project,,,,,
StopPoint:node:4990162109,5.5706712,-0.21329089999999998,Circle,,,,,yes,,,,bus_stop,,Circle,,,,,,platform,,,survey summer 2017 - AccraMobile3 project,,,,,
StopPoint:node:4990162110,5.6050751,-0.24526969999999998,Abotare,,,,,yes,,,,bus_stop,,Abotare,,,,,,platform,,,survey summer 2017 - AccraMobile3 project,,,,,
StopPoint:node:4990162111,5.6039005,-0.2435927,Abeka Post Office,,,,,yes,,,,bus_stop,,Abeka Post Office,,,,,,platform,,,survey summer 2017 - AccraMobile3 project,,,,,
StopPoint:node:4990162112,5.6030771,-0.24249669999999998,Fadama Junction,,,,no,yes,,,,bus_stop,,Fadama Junction,,,,,,platform,,no,survey summer 2017 - AccraMobile3 project,,,,,
StopPoint:node:4990162113,5.602627,-0.24157099999999998,Eno,,,,yes,yes,,,,bus_stop,,Eno,,,,,,platform,,yes,survey summer 2017 - AccraMobile3 project,,,,,
StopPoint:node:4990162114,5.6007988,-0.2391297,Abeka Main Market,,,,,yes,,,,bus_stop,,Abeka Main Market,,,,,,platform,,,survey summer 2017 - AccraMobile3 project,,,,,
StopPoint:node:4990162115,5.599799,-0.2373871,Free Pipe,,,,no,yes,,,,bus_stop,,Free Pipe,,,,,,platform,,no,survey summer 2017 - AccraMobile3 project,,,,,
StopPoint:node:4990162116,5.599632499999999,-0.2369134,Adom Junction,,,,,yes,,,,bus_stop,,Adom Junction,,,,,,platform,,,survey summer 2017 - AccraMobile3 project,,,,,
StopPoint:node:4990162117,5.5984513,-0.23364479999999999,Total Curve,,,,,yes,,,,bus_stop,,Total Curve,,,,,,platform,,,survey summer 2017 - AccraMobile3 project,,,,,
StopPoint:node:4990162118,5.598108799999999,-0.2330129,Total,,,,,yes,,,,bus_stop,,Total,,,,,,platform,,,survey summer 2017 - AccraMobile3 project,,,,,
StopPoint:node:4990162119,5.5995177,-0.22477719999999998,Abeka Junction Curve,,,,no,yes,,,,bus_stop,,Abeka Junction Curve,,,,,,platform,,no,survey summer 2017 - AccraMobile3 project,,,,,
StopPoint:node:4990162120,5.5985513,-0.22349729999999998,Abeka Junction,,,,yes,yes,,,,bus_stop,,Abeka Junction,,,,,,platform,,yes,survey summer 2017 - AccraMobile3 project,,,,,
StopPoint:node:4990163121,5.5909137,-0.2183032,Alajo,,,,,yes,,,,bus_stop,,Alajo,,,,,,platform,,,survey summer 2017 - AccraMobile3 project,,,,,
StopPoint:node:4990163122,5.582533499999999,-0.21667789999999998,Caprice,,,,yes,yes,,,,bus_stop,,Caprice,,,,,,platform,,yes,survey summer 2017 - AccraMobile3 project,,,,,
StopPoint:node:4990163123,5.5754508,-0.21653119999999998,Circle Asoredanho,,,,,yes,,,,bus_stop,,Circle Asoredanho,,,name=Avenor?,,,platform,,,survey summer 2017 - AccraMobile3 project,,,,,
StopPoint:node:4990163124,5.571460399999999,-0.21587389999999998,Circle,,,,yes,yes,,,,bus_stop,,Circle,,,,,,platform,,yes,survey summer 2017 - AccraMobile3 project,,,,,
StopPoint:node:4990163125,5.5701412999999995,-0.2139913,Circle Overhead,,,,no,yes,,,,bus_stop,,Circle Overhead,,,,,,platform,,no,survey summer 2017 - AccraMobile3 project,,,,,
StopPoint:node:4990251207,5.6907311,-0.24775319999999998,Kwabenya,,,,,yes,,,,bus_stop,,Kwabenya,,,,,,platform,,,survey summer 2017 - AccraMobile3 project,,,,,
StopPoint:node:4990251208,5.688202899999999,-0.24679669999999998,Kwabenya Market,,,,,yes,,,,bus_stop,,Kwabenya Market,,,,,,platform,,,survey summer 2017 - AccraMobile3 project,,,,,
StopPoint:node:4990251209,5.6853216,-0.2452261,Oscar Junction,,,,,yes,,,,bus_stop,,Oscar Junction,,,,,,platform,,,survey summer 2017 - AccraMobile3 project,,,,,
StopPoint:node:4990251210,5.6812955,-0.2431931,White House,,,,,yes,,,,bus_stop,,White House,,,,,,platform,,,survey summer 2017 - AccraMobile3 project,,,,,
StopPoint:node:4990251211,5.6802782999999994,-0.2427425,Mosuku Junction,,,,,yes,,,,bus_stop,,Mosuku Junction,,,,,,platform,,,survey summer 2017 - AccraMobile3 project,,,,,
StopPoint:node:4990251212,5.6778555,-0.2419295,Point 2,,,,,yes,,,,bus_stop,,Point 2,,,,,,platform,,,survey summer 2017 - AccraMobile3 project,,,,,
StopPoint:node:4990251213,5.676232799999999,-0.2412945,Point 1,,,,,yes,,,,bus_stop,,Point 1,,,,,,platform,,,survey summer 2017 - AccraMobile3 project,,,,,
StopPoint:node:4990251214,5.6729747,-0.24037399999999998,Stores,,,,,yes,,,,bus_stop,,Stores,,,,,,platform,,,survey summer 2017 - AccraMobile3 project,,,,,
StopPoint:node:4990251215,5.668526099999999,-0.2388474,Atomic Second,,,,,yes,,,,bus_stop,,Atomic Second,,,,,,platform,,,survey summer 2017 - AccraMobile3 project,,,,,
StopPoint:node:4990251216,5.6672489,-0.23877179999999998,Atomic First,,,,,yes,,,,bus_stop,,Atomic First,,,,,,platform,,,survey summer 2017 - AccraMobile3 project,,,,,
StopPoint:node:4990251217,5.6605076,-0.2373407,Dome New Station,,,,,yes,,,,bus_stop,,Dome New Station,,,,,,platform,,,survey summer 2017 - AccraMobile3 project,,,,,
StopPoint:node:4990251218,5.6579628,-0.2373439,Born Again,,,,,yes,,,,bus_stop,,Born Again,,,,,,platform,,,survey summer 2017 - AccraMobile3 project,,,,,
StopPoint:node:4990251219,5.6560279,-0.23729979999999998,Gym,,,,,yes,,,,bus_stop,,Gym,,,,,,platform,,,survey summer 2017 - AccraMobile3 project,,,,,
StopPoint:node:4990251220,5.6539044999999994,-0.2373025,Dome Mobil / Filling Station,,,,,yes,,,,bus_stop,,Dome Mobil / Filling Station,,,,,,platform,,,survey 2019 - SmartTransit,,,,,
StopPoint:node:4990252721,5.6516641,-0.2374285,Dome Old Station,,,,,yes,,,,bus_stop,,Dome Old Station,,,,,,platform,,,survey summer 2017 - AccraMobile3 project,,,,,
StopPoint:node:4990252722,5.6471683,-0.2365271,Dome Crossing,,,,,yes,,,,bus_stop,,Dome Crossing,,,,,,platform,,,survey summer 2017 - AccraMobile3 project,,,,,
StopPoint:node:4990252723,5.645546599999999,-0.23705079999999998,Adehyeman,,,,,yes,,,,bus_stop,,Adehyeman,,,,,,platform,,,survey summer 2017 - AccraMobile3 project,,,,,
StopPoint:node:4990252724,5.642888,-0.2381963,Dome Market,,,,,yes,,,,bus_stop,,Dome Market,,,,,,platform,,,survey summer 2017 - AccraMobile3 project,,,,,
StopPoint:node:4990252725,5.6373745,-0.24147159999999998,Achimota Mall,,,,,yes,,,,bus_stop,,Achimota Mall,,,,,,platform,,,survey summer 2017 - AccraMobile3 project,,,,,
StopPoint:node:4990252726,5.6353158,-0.24019839999999998,Best Point,,,,,yes,,,,bus_stop,,Best Point,,,,,,platform,,,survey summer 2017 - AccraMobile3 project,,,,,
StopPoint:node:4990252727,5.6342088,-0.2409738,Mile 7 Junction,,,,,yes,,,,bus_stop,,Mile 7 Junction,,,,,,platform,,,survey summer 2017 - AccraMobile3 project,,,,,
StopPoint:node:4990252728,5.6330591,-0.24291169999999998,Presby Junction,,,,,yes,,,,bus_stop,,Presby Junction,,,,,,platform,,,survey summer 2017 - AccraMobile3 project,,,,,
StopPoint:node:4990252729,5.6322471,-0.2441669,Mile 7 Park,,,,,yes,,,,bus_stop,,Mile 7 Park,,,,,,platform,,,survey summer 2017 - AccraMobile3 project,,,,,
StopPoint:node:4990252730,5.6314823,-0.2451977,Masalaashi,,,,,yes,,,,bus_stop,,Masalaashi,,,,,,platform,,,survey summer 2017 - AccraMobile3 project,,,,,
StopPoint:node:4990252731,5.6308278,-0.2460741,Jesus and Mary,,,,,yes,,,,bus_stop,,Jesus and Mary,,,,,,platform,,,survey summer 2017 - AccraMobile3 project,,,,,
StopPoint:node:4990252732,5.629669,-0.2478736,Mile 7 Clinic,,,,,yes,,,,bus_stop,,Mile 7 Clinic,,,,,,platform,,,survey summer 2017 - AccraMobile3 project,,,,,
StopPoint:node:4990252733,5.6263989,-0.2505962,Mile 7 T-Junction,,,,,yes,,,,bus_stop,,Mile 7 T-Junction,,,,,,platform,,,survey summer 2017 - AccraMobile3 project,,,,,
StopPoint:node:4990252734,5.622404599999999,-0.24844729999999998,Family Life,,,,,yes,,,,bus_stop,,Family Life,,,,,,platform,,,survey summer 2017 - AccraMobile3 project,,,,,
StopPoint:node:4990252735,5.6185649,-0.2499147,Fishpond,,,,,yes,,,,bus_stop,,Fishpond,,,,,,platform,,,survey summer 2017 - AccraMobile3 project,,,,,
StopPoint:node:4990252736,5.6091997,-0.2476072,Abeka Lapaz,,,,,yes,,,,bus_stop,,Abeka Lapaz,,,,,,platform,,,survey summer 2017 - AccraMobile3 project,,,,,
StopPoint:node:4990423833,5.6094268,-0.24573979999999998,MTN,,,,,yes,,,,bus_stop,,MTN,,,,,,platform,,,survey summer 2017 - AccraMobile3 project,,,,,
StopPoint:node:4990423834,5.612947,-0.2450317,Container,,,,,yes,,,,bus_stop,,Container,,,,,,platform,,,survey summer 2017 - AccraMobile3 project,,,,,
StopPoint:node:4990423835,5.6137295,-0.2452452,Nii Boi Station,,,,,yes,,,,bus_stop,,Nii Boi Station,,,,,,platform,,,survey summer 2017 - AccraMobile3 project,,,,,
StopPoint:node:4990423836,5.6160195,-0.24840279999999998,High Tension,,,,,yes,,,,bus_stop,,High Tension,,,,,,platform,,,survey summer 2017 - AccraMobile3 project,,,,,
StopPoint:node:4990423837,5.6185775,-0.2499632,Fishpond,,,,,yes,,,,bus_stop,,Fishpond,,,,,,platform,,,survey summer 2017 - AccraMobile3 project,,,,,
StopPoint:node:4990423838,5.6224777,-0.24853029999999998,Family Life,,,,,yes,,,,bus_stop,,Family Life,,,,,,platform,,,survey summer 2017 - AccraMobile3 project,,,,,
StopPoint:node:4990423839,5.626301499999999,-0.2505813,Mile 7 T-Junction Top,,,,,yes,,,,bus_stop,,Mile 7 T-Junction Top,,,,,,platform,,,survey summer 2017 - AccraMobile3 project,,,,,
StopPoint:node:4990423840,5.6279623999999995,-0.2515691,T-Junction Down,,,,,yes,,,,bus_stop,,T-Junction Down,,,,,,platform,,,survey summer 2017 - AccraMobile3 project,,,,,
StopPoint:node:4990423841,5.6297191,-0.24795419999999999,Mile 7 Clinic,,,,,yes,,,,bus_stop,,Mile 7 Clinic,,,,,,platform,,,survey summer 2017 - AccraMobile3 project,,,,,
StopPoint:node:4990423842,5.6306161,-0.24654199999999998,Jesus and Mary,,,,,yes,,,,bus_stop,,Jesus and Mary,,,,,,platform,,,survey summer 2017 - AccraMobile3 project,,,,,
StopPoint:node:4990423843,5.6322934,-0.2442247,Mile 7 Park,,,,,yes,,,,bus_stop,,Mile 7 Park,,,,,,platform,,,survey summer 2017 - AccraMobile3 project,,,,,
StopPoint:node:4990423844,5.6332792,-0.2426919,Presby Junction,,,,,yes,,,,bus_stop,,Presby Junction,,,,,,platform,,,survey summer 2017 - AccraMobile3 project,,,,,
StopPoint:node:4990423845,5.6345708,-0.2405085,Mile 7 Junction,,,,,yes,,,,bus_stop,,Mile 7 Junction,,,,,,platform,,,survey summer 2017 - AccraMobile3 project,,,,,
StopPoint:node:4990423846,5.6429227,-0.24551489999999998,Tantra Hills,,,,,yes,,,,bus_stop,,Tantra Hills,,,,,,platform,,,survey summer 2017 - AccraMobile3 project,,,,,
StopPoint:node:4990423847,5.6395889,-0.2421731,St. Johns,,,,,yes,,,,bus_stop,,St. Johns,,,,,,platform,,,survey summer 2017 - AccraMobile3 project,,,,,
StopPoint:node:4990423848,5.643859,-0.23782979999999998,Dome Market,,,,,yes,,,,bus_stop,,Dome Market,,,,,,platform,,,survey summer 2017 - AccraMobile3 project,,,,,
StopPoint:node:4990423849,5.6454242,-0.2371708,Adehyeman,,,,,yes,,,,bus_stop,,Adehyeman,,,,,,platform,,,survey summer 2017 - AccraMobile3 project,,,,,
StopPoint:node:4990423850,5.6476486999999995,-0.2366063,Dome Crossing,,,,,yes,,,,bus_stop,,Dome Crossing,,,,,,platform,,,survey summer 2017 - AccraMobile3 project,,,,,
StopPoint:node:4990423851,5.6517281,-0.23746779999999998,Dome Old Station,,,,,yes,,,,bus_stop,,Dome Old Station,,,,,,platform,,,survey summer 2017 - AccraMobile3 project,,,,,
StopPoint:node:4990423852,5.6558011,-0.23737129999999998,Gym,,,,,yes,,,,bus_stop,,Gym,,,,,,platform,,,survey summer 2017 - AccraMobile3 project,,,,,
StopPoint:node:4990423853,5.657836199999999,-0.2373961,Born Again,,,,,yes,,,,bus_stop,,Born Again,,,,,,platform,,,survey summer 2017 - AccraMobile3 project,,,,,
StopPoint:node:4990423854,5.6673995999999995,-0.23894459999999998,Atomic Second,,,,,yes,,,,bus_stop,,Atomic Second,,,,,,platform,,,survey summer 2017 - AccraMobile3 project,,,,,
StopPoint:node:4990644967,5.6226239,-0.0694091,Sakumono,,,,,yes,,,,bus_stop,,Sakumono,,,,,,platform,,,survey summer 2017 - AccraMobile3 project,,,,,
StopPoint:node:4990644968,5.6217004,-0.0710647,Traffic,,,,,yes,,,,bus_stop,,Traffic,,,,,,platform,,,survey summer 2017 - AccraMobile3 project,,,,,
StopPoint:node:4990644969,5.6233422,-0.073187,Parakuo,,,,,yes,,,,bus_stop,,Parakuo,,,,,,platform,,,survey summer 2017 - AccraMobile3 project,,,,,
StopPoint:node:4990644970,5.6248518999999995,-0.07593369999999999,18 Junction,,,,,yes,,,,bus_stop,,18 Junction,,,,,,platform,,,survey summer 2017 - AccraMobile3 project,,,,,
StopPoint:node:4990644971,5.6254631,-0.0792992,Texpo,,,,,yes,,,,bus_stop,,Texpo,,,,,,platform,,,survey summer 2017 - AccraMobile3 project,,,,,
StopPoint:node:4990644972,5.6260024,-0.0826056,Victory Signboard,,,,,yes,,,,bus_stop,,Victory Signboard,,,,,,platform,,,survey summer 2017 - AccraMobile3 project,,,,,
StopPoint:node:4990644973,5.6270038,-0.0855121,White House,,,,,yes,,,,bus_stop,,White House,,,,,,platform,,,survey summer 2017 - AccraMobile3 project,,,,,
StopPoint:node:4990644974,5.6276573999999995,-0.087111,Total,,,,,yes,,,,bus_stop,,Total,,,,,,platform,,,survey summer 2017 - AccraMobile3 project,,,,,
StopPoint:node:4990644975,5.6286941,-0.08977779999999999,Kotobaabi,,,,,yes,,,,bus_stop,,Kotobaabi,,,,,,platform,,,survey summer 2017 - AccraMobile3 project,,,,,
StopPoint:node:4990644976,5.6301492,-0.0923639,Basket,,,,,yes,,,,bus_stop,,Basket,,,,,,platform,,,survey summer 2017 - AccraMobile3 project,,,,,
StopPoint:node:4990644977,5.632499999999999,-0.09572,Rainbow,,,,,yes,,,,bus_stop,,Rainbow,,,,,,platform,,,survey summer 2017 - AccraMobile3 project,,,,,
StopPoint:node:4990644978,5.6332704,-0.09703579999999999,First Choice,,,,,yes,,,,bus_stop,,First Choice,,,,,,platform,,,survey summer 2017 - AccraMobile3 project,,,,,
StopPoint:node:4990644979,5.6340886,-0.098671,Bedford,,,,,yes,,,,bus_stop,,Bedford,,,,,,platform,,,survey summer 2017 - AccraMobile3 project,,,,,
StopPoint:node:4990644980,5.634964399999999,-0.1004211,Costal,,,,,yes,,,,bus_stop,,Costal,,,,,,platform,,,survey summer 2017 - AccraMobile3 project,,,,,
StopPoint:node:4990644981,5.637421,-0.10449979999999999,Shell Signboard,,,,,yes,,,,bus_stop,,Shell Signboard,,,,,,platform,,,survey summer 2017 - AccraMobile3 project,,,,,
StopPoint:node:4990644982,5.6402526,-0.1075882,Shell,,,,,yes,,,,bus_stop,,Shell,,,,,,platform,,,survey summer 2017 - AccraMobile3 project,,,,,
StopPoint:node:4990644983,5.643194299999999,-0.1108132,Coke,,,,,yes,,,,bus_stop,,Coke,,,,,,platform,,,survey summer 2017 - AccraMobile3 project,,,,,
StopPoint:node:4990644984,5.6431442999999994,-0.1127662,Junction Wise,,,,,yes,,,,bus_stop,,Junction Wise,,,,,,platform,,,survey summer 2017 - AccraMobile3 project,,,,,
StopPoint:node:4990644985,5.6423513,-0.11465869999999999,Blue Gate,,,,,yes,,,,bus_stop,,Blue Gate,,,,,,platform,,,survey summer 2017 - AccraMobile3 project,,,,,
StopPoint:node:4990644986,5.6412267,-0.11747569999999999,Herbalife,,,,,yes,,,,bus_stop,,Herbalife,,,,,,platform,,,survey summer 2017 - AccraMobile3 project,,,,,
StopPoint:node:4990644987,5.640435399999999,-0.1194479,Printex,,,,,yes,,,,bus_stop,,Printex,,,,,,platform,,,survey summer 2017 - AccraMobile3 project,,,,,
StopPoint:node:4990644988,5.6389049,-0.1232697,Lion,,,,,yes,,,,bus_stop,,Lion,,,,,,platform,,,survey summer 2017 - AccraMobile3 project,,,,,
StopPoint:node:4990644989,5.6376596,-0.1264227,Manet,,,,,yes,,,,bus_stop,,Manet,,,,,,platform,,,survey summer 2017 - AccraMobile3 project,,,,,
StopPoint:node:4990644990,5.636397,-0.1295281,Zain Office,,,,,yes,,,,bus_stop,,Zain Office,,,,,,platform,,,survey summer 2017 - AccraMobile3 project,,,,,
StopPoint:node:4990644991,5.6350484,-0.1328471,Cylinder,,,,,yes,,,,bus_stop,,Cylinder,,,,,,platform,,,survey summer 2017 - AccraMobile3 project,,,,,
StopPoint:node:4990644992,5.6316199,-0.1412343,Second,,,,,yes,,,,bus_stop,,Second,,,,,,platform,,,survey summer 2017 - AccraMobile3 project,,,,,
StopPoint:node:4990644993,5.6308497,-0.1430386,Energy,,,,,yes,,,,bus_stop,,Energy,,,,,,platform,,,survey summer 2017 - AccraMobile3 project,,,,,
StopPoint:node:4990644994,5.6267862,-0.1525619,Flower Pot,,,,,yes,,,,bus_stop,,Flower Pot,,,,,,platform,,,survey summer 2017 - AccraMobile3 project,,,,,
StopPoint:node:4990644995,5.6072099,-0.24668649999999998,Abeka Lapaz,,,,,yes,,,,bus_stop,,Abeka Lapaz,,,,,,platform,,,survey summer 2017 - AccraMobile3 project,,,,,
StopPoint:node:4992365322,5.6210178,-0.1741114,Accra Mall Roundabout,,,,,yes,,,,bus_stop,,Accra Mall Roundabout,,,,,,platform,,,survey summer 2017 - AccraMobile3 project,,,,,
StopPoint:node:4992365323,5.6231117,-0.16911489999999998,Vulgunizer,,,,,yes,,,,bus_stop,,Vulgunizer,,,,,,platform,,,survey summer 2017 - AccraMobile3 project,,,,,
StopPoint:node:4992365324,5.6269062,-0.1535764,Flower Pot,,,,,yes,,,,bus_stop,,Flower Pot,,,,,,platform,,,survey summer 2017 - AccraMobile3 project,,,,,
StopPoint:node:4992365325,5.630844,-0.1433853,Energy,,,,,yes,,,,bus_stop,,Energy,,,,,,platform,,,survey summer 2017 - AccraMobile3 project,,,,,
StopPoint:node:4992365326,5.637704299999999,-0.1265562,Manet,,,,,yes,,,,bus_stop,,Manet,,,,,,platform,,,survey summer 2017 - AccraMobile3 project,,,,,
StopPoint:node:4992365327,5.6402316,-0.1201955,Printex,,,,,yes,,,,bus_stop,,Printex,,,,,,platform,,,survey summer 2017 - AccraMobile3 project,,,,,
StopPoint:node:4992365328,5.6431455,-0.11304969999999999,Junction Wise,,,,,yes,,,,bus_stop,,Junction Wise,,,,,,platform,,,survey summer 2017 - AccraMobile3 project,,,,,
StopPoint:node:4992365329,5.6260281,-0.08208209999999999,Washing Bay,,,,,yes,,,,bus_stop,,Washing Bay,,,,,,platform,,,survey summer 2017 - AccraMobile3 project,,,,,
StopPoint:node:4992650307,5.5840597999999995,-0.2339909,Swanlake Last Stop,,,,,yes,,,,bus_stop,,Swanlake Last Stop,,,,,,platform,,,,,,,,
StopPoint:node:4992650308,5.5853024,-0.2317099,Swanlake,,,,,yes,,,,bus_stop,,Swanlake,,,,,,platform,,,survey summer 2017 - AccraMobile3 project,,,,,
StopPoint:node:4992650309,5.5819731,-0.2303616,Green Hand,,,,,yes,,,,bus_stop,,Green Hand,,,,,,platform,,,survey summer 2017 - AccraMobile3 project,,,,,
StopPoint:node:4992650310,5.575090299999999,-0.22696529999999998,Azumah Nelson Complex,,,,,yes,,,,bus_stop,,Azumah Nelson Complex,,,,,,platform,,,survey summer 2017 - AccraMobile3 project,,,,,
StopPoint:node:4992783151,5.6452868,0.0031339,Tema Main Harbour,,,,,yes,,,,bus_stop,,Tema Main Harbour,,,,,,platform,,,survey summer 2017 - AccraMobile3 project,,,,,
StopPoint:node:4992783152,5.6732099,-0.0099318,Community 8,,,,no,yes,,,,bus_stop,,Community 8,,,,,,platform,,yes,survey summer 2017 - AccraMobile3 project,,,,,
StopPoint:node:4992783153,5.6826001,-0.0139995,Tema Motorway Total,,,,,yes,,,,bus_stop,,Tema Motorway Total,,,,,,platform,,,survey summer 2017 - AccraMobile3 project,,,,,
StopPoint:node:4992783154,5.6820534,-0.025778,Ashaiman Overhead,,,,,yes,,,,bus_stop,,Ashaiman Overhead,,,,,,platform,,,survey summer 2017 - AccraMobile3 project,,,,,
StopPoint:node:4992783155,5.645056599999999,-0.1176802,Trasacco,,,,,yes,,,,bus_stop,,Trasacco,,,,,,platform,,,survey summer 2017 - AccraMobile3 project,,,,,
StopPoint:node:4992783156,5.5695212,-0.21857069999999998,Neoplan,,,,,yes,,,,bus_stop,,Neoplan,,,,,,platform,,,,,,,,
StopPoint:node:4992880435,5.645188999999999,0.0012603,Tema Community One Market,,,,,yes,,,,bus_stop,,Tema Community One Market,,,,,,platform,,,survey summer 2017 - AccraMobile3 project,,,,,
StopPoint:node:4994619134,5.6127269,-0.22234189999999998,Junction,,,,,yes,,,,bus_stop,,Junction,,,,,,platform,,,survey summer 2017 - AccraMobile3 project,,,,,
StopPoint:node:4994619135,5.6111632,-0.21768679999999999,Dua Ase,,,,,yes,,,,bus_stop,,Dua Ase,,,,,,platform,,,survey summer 2017 - AccraMobile3 project,,,,,
StopPoint:node:4994619136,5.6075289999999995,-0.21570979999999998,Abelenkpe Curve,,,,,yes,,,,bus_stop,,Abelenkpe Curve,,,,,,platform,,,survey summer 2017 - AccraMobile3 project,,,,,
StopPoint:node:4994875968,5.5495887,-0.21062599999999998,Accra UTC,,,,,yes,,,,bus_stop,,Accra UTC,,,,,,platform,,,survey summer 2017 - AccraMobile3 project,,,,,
StopPoint:node:4994875969,5.5577685,-0.2124429,Roxy Cinema,,,,yes,yes,,,,bus_stop,,Roxy Cinema,,,,,,platform,,yes,survey summer 2017 - AccraMobile3 project,,,,,
StopPoint:node:4994875970,5.5630961999999995,-0.21391849999999998,Adabraka Market,,,,,yes,,,,bus_stop,,Adabraka Market,,,,,,platform,,,survey summer 2017 - AccraMobile3 project,,,,,
StopPoint:node:4994875971,5.5991257999999995,-0.2357075,PnP Junction,,,,,yes,,,,bus_stop,,PnP Junction,,,,,,platform,,,survey summer 2017 - AccraMobile3 project,,,,,
StopPoint:node:4994875972,5.606279499999999,-0.24817009999999998,Abeka Lapaz,,,,,yes,,,,bus_stop,,Abeka Lapaz,,,,,,platform,,,survey summer 2017 - AccraMobile3 project,,,,,
StopPoint:node:4994957017,5.601636699999999,-0.2405531,Fadama,,,,no,yes,,,,bus_stop,,Fadama,,,,,,platform,,no,survey summer 2017 - AccraMobile3 project,,,,,
StopPoint:node:4994957018,5.5989439999999995,-0.23495329999999998,Abeka Bcos Junction,,,,,yes,,,,bus_stop,,Abeka Bcos Junction,,,,,,platform,,,survey summer 2017 - AccraMobile3 project,,,,,
StopPoint:node:4994957019,5.5984514,-0.2305257,Tesano Gardens,,,,,yes,,,,bus_stop,,Tesano Gardens,,,,,,platform,,,survey summer 2017 - AccraMobile3 project,,,,,
StopPoint:node:4994957020,5.5987672,-0.22864559999999998,Abrantie,,,,,yes,,,,bus_stop,,Abrantie,,,,,,platform,,,survey summer 2017 - AccraMobile3 project,,,,,
StopPoint:node:4994958921,5.599276,-0.2261722,Fitting Shop,,,,,yes,,,,bus_stop,,Fitting Shop,,,,,,platform,,,survey summer 2017 - AccraMobile3 project,,,,,
StopPoint:node:4994958922,5.5887674,-0.2179553,Alajo,,,,,yes,,,,bus_stop,,Alajo,,,,,,platform,,,survey summer 2017 - AccraMobile3 project,,,,,
StopPoint:node:4994958923,5.5677653,-0.2133534,Mr. Biggs,,,,yes,yes,,,,bus_stop,,Mr. Biggs,,,,,,platform,,yes,survey summer 2017 - AccraMobile3 project,,,,,
StopPoint:node:4994958924,5.5637,-0.2110657,Adabraka Market,,,,,yes,,,,bus_stop,,Adabraka Market,,,,,,platform,,,survey summer 2017 - AccraMobile3 project,,,,,
StopPoint:node:4994958925,5.557235299999999,-0.20937799999999998,Champion,,,,,yes,,,,bus_stop,,Champion,,,,,,platform,,,survey summer 2017 - AccraMobile3 project,,,,,
StopPoint:node:4994958926,5.5559622,-0.20908469999999998,Starlite,,,,yes,yes,,,,bus_stop,,Starlite,,,,,,platform,,yes,survey summer 2017 - AccraMobile3 project,,,,,
StopPoint:node:4994958927,5.5534864,-0.20843,Accra Poly,,,,,yes,,,,bus_stop,,Accra Poly,,,,,,platform,,,survey summer 2017 - AccraMobile3 project,,,,,
StopPoint:node:4994958928,5.54688,-0.20999379999999998,Accra UTC,,,,,yes,,,,bus_stop,,Accra UTC,,,,,,platform,,,survey summer 2017 - AccraMobile3 project,,,,,
StopPoint:node:4995054804,5.554075999999999,-0.1835933,Osu,,,,,yes,,,,bus_stop,,Osu,,,,,,platform,,,,,,,,
StopPoint:node:4995054805,5.554982,-0.1833494,Presby School Junction,,,,,yes,,,,bus_stop,,Presby School Junction,,,,,,platform,,,survey summer 2017 - AccraMobile3 project,,,,,
StopPoint:node:4995054806,5.556597399999999,-0.1826812,Osu Shell,,,,,yes,,,,bus_stop,,Osu Shell,,,Check position,,,platform,,,survey summer 2017 - AccraMobile3 project,,,,,
StopPoint:node:4995054807,5.559569199999999,-0.1822208,Papaye,,,,,yes,,,,bus_stop,,Papaye,,,,,,platform,,,survey summer 2017 - AccraMobile3 project,,,,,
StopPoint:node:4995054808,5.5627714,-0.18160469999999998,SNNIT,,,,,yes,,,,bus_stop,,SNNIT,,,,,,platform,,,survey summer 2017 - AccraMobile3 project,,,,,
StopPoint:node:4995054809,5.564833999999999,-0.1813457,Afridom,,,,,yes,,,,bus_stop,,Afridom,,,,,,platform,,,survey summer 2017 - AccraMobile3 project,,,,,
StopPoint:node:4995054810,5.5661404,-0.1811262,Koala,,,,,yes,,,,bus_stop,,Koala,,,,,,platform,,,survey summer 2017 - AccraMobile3 project,,,,,
StopPoint:node:4995054811,5.5678104,-0.1808304,Police Hospital,,,,,yes,,,,bus_stop,,Police Hospital,,,,,,platform,,,survey summer 2017 - AccraMobile3 project,,,,,
StopPoint:node:4995054812,5.5709121999999995,-0.18030259999999998,Prisons,,,,,yes,,,,bus_stop,,Prisons,,,,,,platform,,,survey summer 2017 - AccraMobile3 project,,,,,
StopPoint:node:4995054813,5.5743025,-0.1794401,Aquinas,,,,,yes,,,,bus_stop,,Aquinas,,,,,,platform,,,survey summer 2017 - AccraMobile3 project,,,,,
StopPoint:node:4995054814,5.576156999999999,-0.1789287,Roundabout,,,,,yes,,,,bus_stop,,Roundabout,,,,,,platform,,,survey summer 2017 - AccraMobile3 project,,,,,
StopPoint:node:4995054815,5.5800085,-0.17535699999999999,GIS Curve,,,,,yes,,,,bus_stop,,GIS Curve,,,,,,platform,,,survey summer 2017 - AccraMobile3 project,,,,,
StopPoint:node:4995054816,5.5851220999999995,-0.1762183,Lands Commission,,,,,yes,,,,bus_stop,,Lands Commission,,,,,,platform,,,survey summer 2017 - AccraMobile3 project,,,,,
StopPoint:node:4995095759,5.5853445,-0.1761758,Post Office,,,,,yes,,,,bus_stop,,Post Office,,,,,,platform,,,survey summer 2017 - AccraMobile3 project,,,,,
StopPoint:node:4995095760,5.5814512999999994,-0.1762675,GIS,,,,,yes,,,,bus_stop,,GIS,,,,,,platform,,,survey summer 2017 - AccraMobile3 project,,,,,
StopPoint:node:4995095761,5.577221199999999,-0.1781169,Roundabout,,,,,yes,,,,bus_stop,,Roundabout,,,,,,platform,,,survey summer 2017 - AccraMobile3 project,,,,,
StopPoint:node:4995095762,5.5734194,-0.1796031,Morning Star,,,,yes,yes,,,,bus_stop,,Morning Star,,,,,,platform,,yes,survey summer 2017 - AccraMobile3 project,,,,,
StopPoint:node:4995095763,5.569966399999999,-0.1804076,Prisons,,,,,yes,,,,bus_stop,,Prisons,,,,,,platform,,,survey summer 2017 - AccraMobile3 project,,,,,
StopPoint:node:4995095764,5.5679853,-0.18073609999999998,Police Hospital,,,,,yes,,,,bus_stop,,Police Hospital,,,,,,platform,,,survey summer 2017 - AccraMobile3 project,,,,,
StopPoint:node:4995095765,5.5653643,-0.1811648,Penta Hotel,,,,,yes,,,,bus_stop,,Penta Hotel,,,,,,platform,,,survey summer 2017 - AccraMobile3 project,,,,,
StopPoint:node:4995095767,5.5597486,-0.18213849999999998,Papaye,,,,,yes,,,,bus_stop,,Papaye,,,,,,platform,,,survey summer 2017 - AccraMobile3 project,,,,,
StopPoint:node:4995095768,5.5562606,-0.1827183,Osu Shell,,,,,yes,,,,bus_stop,,Osu Shell,,,Check position,,,platform,,,survey summer 2017 - AccraMobile3 project,,,,,
StopPoint:node:4995193047,5.5820723,-0.2304628,Green Hand,,,,,yes,,,,bus_stop,,Green Hand,,,,,,platform,,,survey summer 2017 - AccraMobile3 project,,,,,
StopPoint:node:4995193048,5.5876287,-0.2328747,Old Stop,,Holy Trinity,,yes,yes,,,,bus_stop,,Old Stop,,,,,,platform,,,survey summer 2017 - AccraMobile3 project,,,,,
StopPoint:node:4995193049,5.5658237999999995,-0.2352465,Kaneshie Market Station,,,bus_station,,yes,,,,bus_stop,,Kaneshie Market Station,,,,,,platform,,,survey summer 2017 - AccraMobile3 project,,,,,
StopPoint:node:4995193050,5.566246,-0.2340054,Kaneshie Last Stop,,,,,yes,,,,bus_stop,,Kaneshie Last Stop,,,,,,platform,,,survey summer 2017 - AccraMobile3 project,,,,,
StopPoint:node:4995193051,5.5688102,-0.2343274,Social Welfare,,,,yes,yes,,,,bus_stop,,Social Welfare,,,,,,platform,,no,survey summer 2017 - AccraMobile3 project,,,,,
StopPoint:node:4995193052,5.572067,-0.2311539,Roundabout,,,,,yes,,,,bus_stop,,Roundabout,,,,,,platform,,,survey summer 2017 - AccraMobile3 project,,,,,
StopPoint:node:4995193053,5.574338,-0.23069409999999999,Kaneshie Polyclinic,,Mother Care,,yes,yes,,,,bus_stop,,Kaneshie Polyclinic,,,verify alt_name,,,platform,,yes,survey summer 2017 - AccraMobile3 project,,,,,
StopPoint:node:4995193054,5.5849443,-0.23165519999999998,Masalakyi,,,,,yes,,,,bus_stop,,Masalakyi,,,,,,platform,,,survey summer 2017 - AccraMobile3 project,,,,,
StopPoint:node:4995587413,5.5966426,-0.2333391,Second,,,,,yes,,,,bus_stop,,Second,,,,,,platform,,,survey summer 2017 - AccraMobile3 project,,,,,
StopPoint:node:4996742714,5.5546286,-0.2546273,Russia Station,,,bus_station,,yes,,,,bus_stop,,Russia Station,,,,,,platform,,,survey summer 2017 - AccraMobile3 project,,,,,
StopPoint:node:4996742715,5.5552689,-0.25475929999999997,Curve,,,,,yes,,,,bus_stop,,Curve,,,,,,platform,,,,,,,,
StopPoint:node:4996742716,5.5559068,-0.253365,Omanko,,,,,yes,,,,bus_stop,,Omanko,,,,,,platform,,,survey summer 2017 - AccraMobile3 project,,,,,
StopPoint:node:4996742717,5.5564032,-0.2514013,Russia,,,,,yes,,,,bus_stop,,Russia,,,,,,platform,,,survey summer 2017 - AccraMobile3 project,,,,,
StopPoint:node:4996742718,5.5595035,-0.2518778,Paa Willie,,,,,yes,,,,bus_stop,,Paa Willie,,,,,,platform,,,survey summer 2017 - AccraMobile3 project,,,,,
StopPoint:node:4996742719,5.5589078,-0.24704079999999998,Flamingo,,Warlako,,,yes,,,,bus_stop,,Flamingo,,,,,,platform,,,survey summer 2017 - AccraMobile3 project,,,,,
StopPoint:node:4996742720,5.5626042,-0.2454452,JT,,,,,yes,,,,bus_stop,,JT,,,,,,platform,,,survey summer 2017 - AccraMobile3 project,,,,,
StopPoint:node:4996743221,5.5662598,-0.24386159999999998,First Light,,,,,yes,,,,bus_stop,,First Light,,,,,,platform,,,survey summer 2017 - AccraMobile3 project,,,,,
StopPoint:node:4996770212,5.5645675,-0.23495149999999998,Kaneshie,,,,,yes,,,,bus_stop,,Kaneshie,,,,,,platform,,,survey summer 2017 - AccraMobile3 project,,,,,
StopPoint:node:4996770213,5.567893799999999,-0.24265009999999998,First Light,,,,,yes,,,,bus_stop,,First Light,,,,,,platform,,,survey summer 2017 - AccraMobile3 project,,,,,
StopPoint:node:4996770214,5.5626226999999995,-0.2452565,JT,,,,,yes,,,,bus_stop,,JT,,,,,,platform,,,survey summer 2017 - AccraMobile3 project,,,,,
StopPoint:node:4996770215,5.5591137999999996,-0.24625799999999998,Seventh Day Adventist,,,,,yes,,,,bus_stop,,Seventh Day Adventist,,,,,,platform,,,survey summer 2017 - AccraMobile3 project,,,,,
StopPoint:node:4996770216,5.559596099999999,-0.251848,Paa Willie,,,,,yes,,,,bus_stop,,Paa Willie,,,,,,platform,,,survey summer 2017 - AccraMobile3 project,,,,,
StopPoint:node:4996770217,5.556413099999999,-0.2510543,Russia,,,,,yes,,,,bus_stop,,Russia,,,,,,platform,,,survey summer 2017 - AccraMobile3 project,,,,,
StopPoint:node:4996770218,5.5557969,-0.2536072,Omanko,,,,,yes,,,,bus_stop,,Omanko,,,,,,platform,,,survey summer 2017 - AccraMobile3 project,,,,,
StopPoint:node:4997066313,5.6091079,-0.2373671,Fly Top,,,,,yes,,,,bus_stop,,Fly Top,,,,,,platform,,,survey summer 2017 - AccraMobile3 project,,,,,
StopPoint:node:4997066314,5.5992201999999995,-0.235791,PnP Junction,,,,,yes,,,,bus_stop,,PnP Junction,,,,,,platform,,,survey summer 2017 - AccraMobile3 project,,,,,
StopPoint:node:4997066315,5.5847277,-0.231531,Masalakyi,,,,,yes,,,,bus_stop,,Masalakyi,,,,,,platform,,,survey summer 2017 - AccraMobile3 project,,,,,
StopPoint:node:4997066317,5.7060932,-0.16561489999999998,Adenta Station,,,,,yes,,,,bus_stop,,Adenta Station,,,,,,platform,,,survey summer 2017 - AccraMobile3 project,,,,,
StopPoint:node:4997066318,5.7000568,-0.17160129999999998,Goil Filling Station,,,,,yes,,,,bus_stop,,Goil Filling Station,,,,,,platform,,,survey summer 2017 - AccraMobile3 project,,,,,
StopPoint:node:4997066319,5.6966811,-0.17157229999999998,SDA,,,,,yes,,,,bus_stop,,SDA,,,,,,platform,,,survey summer 2017 - AccraMobile3 project,,,,,
StopPoint:node:4997066320,5.6914266,-0.17153949999999998,Assemblies,,,,,yes,,,,bus_stop,,Assemblies,,,,,,platform,,,survey summer 2017 - AccraMobile3 project,,,,,
StopPoint:node:4997071021,5.6876394999999995,-0.1713683,Ritz Junction,,,,,yes,,,,bus_stop,,Ritz Junction,,,,,,platform,,,survey summer 2017 - AccraMobile3 project,,,,,
StopPoint:node:4997071022,5.6791469,-0.1726782,Madina Masalachi,,,,,yes,,,,bus_stop,,Madina Masalachi,,,,,,platform,,,survey summer 2017 - AccraMobile3 project,,,,,
StopPoint:node:4997071023,5.6753566,-0.17377869999999998,Madina Zongo Junction,,,,,yes,,,,bus_stop,,Madina Zongo Junction,,,,,,platform,,,survey summer 2017 - AccraMobile3 project,,,,,
StopPoint:node:4997071024,5.6712951,-0.17511179999999998,Fire Stone,,,,no,yes,,,,bus_stop,,Fire Stone,,,,,,platform,,no,survey summer 2017 - AccraMobile3 project,,,,,
StopPoint:node:4997071025,5.6679806,-0.1766341,Atomic Second,,,,,yes,,,,bus_stop,,Atomic Second,,,,,,platform,,,survey summer 2017 - AccraMobile3 project,,,,,
StopPoint:node:4997071026,5.6662381,-0.17705769999999998,Atomic First,,,,,yes,,,,bus_stop,,Atomic First,,,,,,platform,,yes,survey summer 2017 - AccraMobile3 project,,yes,,,
StopPoint:node:4997071027,5.6607021,-0.1782402,UPS,,,,,yes,,,,bus_stop,,UPS,,,,,,platform,,,survey summer 2017 - AccraMobile3 project,,,,,
StopPoint:node:4997071028,5.6219506,-0.1794792,Airport Junction,,,,,yes,,,,bus_stop,,Airport Junction,,,,,,platform,,,survey summer 2017 - AccraMobile3 project,,,,,
StopPoint:node:4997071029,5.6168458999999995,-0.1992563,GSL,,,,,yes,,,,bus_stop,,GSL,,,,,,platform,,,survey summer 2017 - AccraMobile3 project,,,,,
StopPoint:node:4997071030,5.6107032,-0.23270939999999998,Suzzy's Inn,,,,,yes,,,,bus_stop,,Suzzy's Inn,,,,,,platform,,,survey summer 2017 - AccraMobile3 project,,,,,
StopPoint:node:4997071031,5.589739,-0.23203739999999998,Sunlight,,,,,yes,,,,bus_stop,,Sunlight,,,,,,platform,,,survey summer 2017 - AccraMobile3 project,,,,,
StopPoint:node:4997071032,5.587521799999999,-0.23272389999999998,Old Stop,,Holy Trinity,,,yes,,,,bus_stop,,Old Stop,,,,,,platform,,yes,survey summer 2017 - AccraMobile3 project,,,,,
StopPoint:node:4997071033,5.5802667,-0.2290372,Pentecost,,,,,yes,,,,bus_stop,,Pentecost,,,,,,platform,,,survey summer 2017 - AccraMobile3 project,,,,,
StopPoint:node:4997071034,5.5794518,-0.2282996,St. Theresa's,,,,,yes,,,,bus_stop,,St. Theresa's,,,,,,platform,,,survey summer 2017 - AccraMobile3 project,,,,,
StopPoint:node:4997071036,5.5728437,-0.2307918,Roundabout,,,,,yes,,,,bus_stop,,Roundabout,,,,,,platform,,,survey summer 2017 - AccraMobile3 project,,,,,
StopPoint:node:4997374730,5.670933499999999,-0.1756988,Fire Stone,,,,,yes,,,,bus_stop,,Fire Stone,,,,,,platform,,,survey summer 2017 - AccraMobile3 project,,,,,
StopPoint:node:4997374731,5.677374599999999,-0.1735825,Madina Zongo Junction,,,,,yes,,,,bus_stop,,Madina Zongo Junction,,,,,,platform,,,survey summer 2017 - AccraMobile3 project,,,,,
StopPoint:node:4997374732,5.6821455,-0.1716386,Madina Masalachi,,,,,yes,,,,bus_stop,,Madina Masalachi,,,,,,platform,,,survey summer 2017 - AccraMobile3 project,,,,,
StopPoint:node:4997374733,5.692931,-0.1719289,Assemblies,,,,,yes,,,,bus_stop,,Assemblies,,,,,,platform,,,survey summer 2017 - AccraMobile3 project,,,,,
StopPoint:node:4997374734,5.6965300999999995,-0.1720302,SDA,,,,,yes,,,,bus_stop,,SDA,,,,,,platform,,,survey summer 2017 - AccraMobile3 project,,,,,
StopPoint:node:4997374735,5.7000383999999995,-0.1719869,Goil Filling Station,,,,,yes,,,,bus_stop,,Goil Filling Station,,,,,,platform,,,survey summer 2017 - AccraMobile3 project,,,,,
StopPoint:node:4997374736,5.7057904,-0.1715852,Adenta Barrier,,,,,yes,,,,bus_stop,,Adenta Barrier,,,,unofficial,,platform,,,survey summer 2017 - AccraMobile3 project,,,,,
StopPoint:node:4997374737,5.5656316,-0.23076349999999998,Pamprom,,,,,yes,,,,bus_stop,,Pamprom,,,,,,platform,,,survey summer 2017 - AccraMobile3 project,,,,,
StopPoint:node:4997374738,5.5674149,-0.22340539999999998,Awudome Cemetery,,,,,yes,,,,bus_stop,,Awudome Cemetery,,,,,,platform,,,survey summer 2017 - AccraMobile3 project,,,,,
StopPoint:node:4997374739,5.5711239,-0.21019089999999999,Equip,,Busy Internet,,,yes,,,,bus_stop,,Equip,,,,,,platform,,,survey summer 2017 - AccraMobile3 project,,,,,
StopPoint:node:4997374740,5.5742088999999995,-0.2007878,Nima Police Station,,,,,yes,,,,bus_stop,,Nima Police Station,,,,,,platform,,,survey summer 2017 - AccraMobile3 project,,,,,
StopPoint:node:4997374741,5.5741271,-0.1975167,Mobil / Kanda Overhead,,Kanda Total,,,yes,,,,bus_stop,,Mobil / Kanda Overhead,,,,,,platform,,,survey summer 2017 - AccraMobile3 project,,,,,
StopPoint:node:4997374742,5.5763199,-0.1896684,TV3,,,,,yes,,,,bus_stop,,TV3,,,,,,platform,,,survey summer 2017 - AccraMobile3 project,,,,,
StopPoint:node:4997374743,5.5763685,-0.18810949999999999,Flagstaff House,,,,,yes,,,,bus_stop,,Flagstaff House,,,,,,platform,,,survey summer 2017 - AccraMobile3 project,,,,,
StopPoint:node:4997374744,5.582531299999999,-0.1854895,37 Water Works,,,,,yes,,,,bus_stop,,37 Water Works,,,,no,,platform,,,survey summer 2017 - AccraMobile3 project,,,,,
StopPoint:node:4997374745,5.5911748,-0.1810542,37,,,,,yes,,,,bus_stop,,37,,,,,,platform,,,survey summer 2017 - AccraMobile3 project,,,,,
StopPoint:node:4997374746,5.5952582,-0.1801215,Opeibea Second,,,,,yes,,,,bus_stop,,Opeibea Second,,,,,,platform,,,survey summer 2017 - AccraMobile3 project,,,,,
StopPoint:node:4997374747,5.6080818,-0.1772453,Airport First,,,,no,yes,,,,bus_stop,,Airport First,,,,,,platform,,yes,survey summer 2017 - AccraMobile3 project,,,,,
StopPoint:node:4997374748,5.6357626,-0.17746109999999998,Legon Second Gate,,,,,yes,,,,bus_stop,,Legon Second Gate,,,,,,platform,,,survey summer 2017 - AccraMobile3 project,,,,,
StopPoint:node:4997374749,5.6590934,-0.1789525,UPS,,,,,yes,,,,bus_stop,,UPS,,,,,,platform,,,survey summer 2017 - AccraMobile3 project,,,,,
StopPoint:node:4997374750,5.6617587,-0.17835979999999999,Presec,,,,,yes,,,,bus_stop,,Presec,,,,,,platform,,,survey summer 2017 - AccraMobile3 project,,,,,
StopPoint:node:4997374751,5.6663817,-0.1775621,Atomic Second,,,,,yes,,,,bus_stop,,Atomic Second,,,,,,platform,,yes,survey summer 2017 - AccraMobile3 project,,yes,,,
StopPoint:node:4997374752,5.668410799999999,-0.1770169,Atomic First,,,,,yes,,,,bus_stop,,Atomic First,,,,,,platform,,,survey summer 2017 - AccraMobile3 project,,,,,
StopPoint:node:4997374753,5.685244099999999,-0.171546,Ritz Second,,,,,yes,,,,bus_stop,,Ritz Second,,,,,,platform,,,survey summer 2017 - AccraMobile3 project,,,,,
StopPoint:node:4997374754,5.688204499999999,-0.1716798,Ritz First,,,,,yes,,,,bus_stop,,Ritz First,,,,,,platform,,,survey summer 2017 - AccraMobile3 project,,,,,
StopPoint:node:4997810026,5.52768,-0.2736519,Mamponse,,,,,yes,,,,bus_stop,,Mamponse,,,,,,platform,,,survey summer 2017 - AccraMobile3 project,,,,,
StopPoint:node:4997810027,5.5295119,-0.26984369999999996,Ebenezer,,,,,yes,,,,bus_stop,,Ebenezer,,,,,,platform,,,survey summer 2017 - AccraMobile3 project,,,,,
StopPoint:node:4997810028,5.528276,-0.2683841,Point 6,,,,,yes,,,,bus_stop,,Point 6,,,,,,platform,,,survey summer 2017 - AccraMobile3 project,,,,,
StopPoint:node:4997810029,5.527639,-0.26599629999999996,Atomic,,,,,yes,,,,bus_stop,,Atomic,,,,,,platform,,,survey summer 2017 - AccraMobile3 project,,,,,
StopPoint:node:4997810030,5.5309817,-0.2614355,Karikari,,,,,yes,,,,bus_stop,,Karikari,,,,,,platform,,,survey summer 2017 - AccraMobile3 project,,,,,
StopPoint:node:4997810031,5.5314410999999994,-0.2575751,Zone 6,,,,,yes,,,,bus_stop,,Zone 6,,,,,,platform,,,survey summer 2017 - AccraMobile3 project,,,,,
StopPoint:node:4997810032,5.5317991,-0.2549926,Agege,,,,,yes,,,,bus_stop,,Agege,,,,,,platform,,,survey summer 2017 - AccraMobile3 project,,,,,
StopPoint:node:4997810033,5.5319607,-0.2540035,205,,,,,yes,,,,bus_stop,,205,,,,,,platform,,,survey summer 2017 - AccraMobile3 project,,,,,
StopPoint:node:4997810034,5.5324642,-0.25116469999999996,Lotto House,,,,,yes,,,,bus_stop,,Lotto House,,,,,,platform,,,survey summer 2017 - AccraMobile3 project,,,,,
StopPoint:node:4997810035,5.532276899999999,-0.2483771,USA,,,,,yes,,,,bus_stop,,USA,,,,,,platform,,,survey summer 2017 - AccraMobile3 project,,,,,
StopPoint:node:4997810036,5.5328628,-0.2462328,Bamboi,,,,,yes,,,,bus_stop,,Bamboi,,,,,,platform,,,survey summer 2017 - AccraMobile3 project,,,,,
StopPoint:node:4997810037,5.5348583,-0.24442049999999998,Methodist,,,,,yes,,,,bus_stop,,Methodist,,,,,,platform,,,survey summer 2017 - AccraMobile3 project,,,,,
StopPoint:node:4997931943,5.5327788,-0.2462315,Bamboi,,,,,yes,,,,bus_stop,,Bamboi,,,,,,platform,,,survey summer 2017 - AccraMobile3 project,,,,,
StopPoint:node:4997931944,5.527215099999999,-0.2664628,Atomic,,,,,yes,,,,bus_stop,,Atomic,,,,,,platform,,,survey summer 2017 - AccraMobile3 project,,,,,
StopPoint:node:4997931945,5.531965,-0.25357399999999997,205,,,,,yes,,,,bus_stop,,205,,,,,,platform,,,survey summer 2017 - AccraMobile3 project,,,,,
StopPoint:node:4997931946,5.529133,-0.2641792,Agege Last Stop,,,,,yes,,,,bus_stop,,Agege Last Stop,,,,,,platform,,,survey summer 2017 - AccraMobile3 project,,,,,
StopPoint:node:4998004817,5.5309718,-0.2504105,Mamprobi Alhaji Station,,,,,yes,,,,bus_stop,,Mamprobi Alhaji Station,,,,,,platform,,,survey summer 2017 - AccraMobile3 project,,,,,
StopPoint:node:4998004818,5.531242,-0.24761609999999998,JB Spot,,Alhaji Junction,,,yes,,,,bus_stop,,JB Spot,,,,,,platform,,,survey summer 2017 - AccraMobile3 project,,,,,
StopPoint:node:4998004819,5.534047,-0.2428767,Junction,,,,,yes,,,,bus_stop,,Junction,,,,,,platform,,,survey summer 2017 - AccraMobile3 project,,,,,
StopPoint:node:4998045789,5.538592599999999,-0.2390579,Sempe First,,,,,yes,,,,bus_stop,,Sempe First,,,,,,platform,,,survey summer 2017 - AccraMobile3 project,,,,,
StopPoint:node:4998045790,5.5344039,-0.2447442,Methodist,,,,,yes,,,,bus_stop,,Methodist,,,,,,platform,,,survey summer 2017 - AccraMobile3 project,,,,,
StopPoint:node:4998045791,5.5648094,-0.2370755,Kaneshie Takoradi Station,,,,,yes,,,,bus_stop,,Kaneshie Takoradi Station,,,,,,platform,,,survey summer 2017 - AccraMobile3 project,,,,,
StopPoint:node:4998045792,5.5375136,-0.24007969999999998,Sempe Second,,,,,yes,,,,bus_stop,,Sempe Second,,,,,,platform,,,survey summer 2017 - AccraMobile3 project,,,,,
StopPoint:node:4998045793,5.53506,-0.2422865,Abodwe,,,,,yes,,,,bus_stop,,Abodwe,,,,,,platform,,,survey summer 2017 - AccraMobile3 project,,,,,
StopPoint:node:4998045794,5.531200999999999,-0.24761149999999998,Alhaji Junction,,,,,yes,,,,bus_stop,,Alhaji Junction,,,,,,platform,,,survey summer 2017 - AccraMobile3 project,,,,,
StopPoint:node:4998106214,5.5827214,-0.20848889999999998,New Town,,,,,yes,,,,bus_stop,,New Town,,,,,,platform,,,survey summer 2017 - AccraMobile3 project,,,,,
StopPoint:node:4998106215,5.578112,-0.2075849,Obour Ba,,,,,yes,,,,bus_stop,,Obour Ba,,,,,,platform,,,survey summer 2017 - AccraMobile3 project,,,,,
StopPoint:node:4998106216,5.576912,-0.209728,Challenge,,,,,yes,,,,bus_stop,,Challenge,,,,,,platform,,,survey summer 2017 - AccraMobile3 project,,,,,
StopPoint:node:4998106217,5.5792706,-0.2128873,NDC,,,,,yes,,,,bus_stop,,NDC,,,,,,platform,,,survey summer 2017 - AccraMobile3 project,,,,,
StopPoint:node:4998106218,5.5805706,-0.2158397,Avalley,,,,,yes,,,,bus_stop,,Avalley,,,,,,platform,,,survey summer 2017 - AccraMobile3 project,,,,,
StopPoint:node:4998106219,5.578490899999999,-0.2157956,Hubtel,,,,,yes,,,,bus_stop,,Hubtel,,,,,,platform,,,survey summer 2017 - AccraMobile3 project,,,,,
StopPoint:node:4999589684,5.6869137,-0.0327126,Ashaiman,,,,,yes,,,,bus_stop,,Ashaiman,,,,,,platform,,,survey summer 2017 - AccraMobile3 project,,,,,
StopPoint:node:4999589685,5.685137,-0.027919799999999998,Washing Bay,,,,,yes,,,,bus_stop,,Washing Bay,,,,,,platform,,,survey summer 2017 - AccraMobile3 project,,,,,
StopPoint:node:4999589686,5.6622447,-0.0713925,Abattoir,,,,,yes,,,,bus_stop,,Abattoir,,,,,,platform,,,survey summer 2017 - AccraMobile3 project,,,,,
StopPoint:node:4999589687,5.6235672999999995,-0.1743056,Accra Mall,,,,no,yes,,,,bus_stop,,Accra Mall,,,,,,platform,,yes,survey summer 2017 - AccraMobile3 project,,,,,
StopPoint:node:4999883665,5.584469599999999,-0.2172718,Caprice Taxi Station,,,,,yes,,,,bus_stop,,Caprice Taxi Station,,,,,,platform,,,survey summer 2017 - AccraMobile3 project,,,yes,,
StopPoint:node:4999883666,5.5851589,-0.21563859999999999,Akoko Darko Junction,,,,,yes,,,,bus_stop,,Akoko Darko Junction,,,,,,platform,,,survey summer 2017 - AccraMobile3 project,,,,,
StopPoint:node:4999883667,5.581519699999999,-0.2088698,Accra New Town Taxi Station,,,,,yes,,,,bus_stop,,Accra New Town Taxi Station,,,,,,platform,,,survey summer 2017 - AccraMobile3 project,,,yes,,
StopPoint:node:5000176411,5.5812246,-0.2637615,Odorkor,,,,,yes,,,,bus_stop,,Odorkor,,,,,,platform,,,survey summer 2017 - AccraMobile3 project,,,,,
StopPoint:node:5000176412,5.5794279,-0.2657017,Cold Store,,,,,yes,,,,bus_stop,,Cold Store,,,,,,platform,,,survey summer 2017 - AccraMobile3 project,,,,,
StopPoint:node:5000176413,5.5787990999999995,-0.267294,Busia Junction,,,,,yes,,,,bus_stop,,Busia Junction,,,,,,platform,,,survey summer 2017 - AccraMobile3 project,,,,,
StopPoint:node:5000176414,5.5761772999999994,-0.2665905,Crystal,,,,,yes,,,,bus_stop,,Crystal,,,,,,platform,,,survey summer 2017 - AccraMobile3 project,,,,,
StopPoint:node:5000176415,5.5705158,-0.2712174,Dela,,,,,yes,,,,bus_stop,,Dela,,,,,,platform,,,survey summer 2017 - AccraMobile3 project,,,,,
StopPoint:node:5000176416,5.5676156,-0.270218,Thirteen,,,,,yes,,,,bus_stop,,Thirteen,,,,,,platform,,,survey summer 2017 - AccraMobile3 project,,,,,
StopPoint:node:5000176417,5.5653597,-0.2687496,Ave Maria,,,,,yes,,,,bus_stop,,Ave Maria,,,,,,platform,,,survey summer 2017 - AccraMobile3 project,,,,,
StopPoint:node:5000176418,5.5612607,-0.2652062,Oxygen (o2),,,,,yes,,,,bus_stop,,Oxygen (o2),,,,,,platform,,,survey summer 2017 - AccraMobile3 project,,,,,
StopPoint:node:5000176419,5.5597816,-0.26512009999999997,St. Martin Depores,,,,,yes,,,,bus_stop,,St. Martin Depores,,,,,,platform,,,survey summer 2017 - AccraMobile3 project,,,,,
StopPoint:node:5000176420,5.5567255,-0.2646243,Dansoman Roundabout,,,,,yes,,,,bus_stop,,Dansoman Roundabout,,,,,,platform,,,survey summer 2017 - AccraMobile3 project,,,,,
StopPoint:node:5000179121,5.554371,-0.2644759,Mama's Inn,,,,,yes,,,,bus_stop,,Mama's Inn,,,,,,platform,,,survey summer 2017 - AccraMobile3 project,,,,,
StopPoint:node:5000179122,5.5523658,-0.264496,Beecham,,,,,yes,,,,bus_stop,,Beecham,,,,,,platform,,,survey summer 2017 - AccraMobile3 project,,,,,
StopPoint:node:5000179123,5.5505587,-0.2645143,Sahara,,,,,yes,,,,bus_stop,,Sahara,,,,,,platform,,,survey summer 2017 - AccraMobile3 project,,,,,
StopPoint:node:5000179124,5.5459695,-0.2645437,Dansoman Control,,,,,yes,,,,bus_stop,,Dansoman Control,,,,,,platform,,,survey summer 2017 - AccraMobile3 project,,,,,
StopPoint:node:5000179125,5.5435269,-0.2645687,Dansoman Police Station,,,,,yes,,,,bus_stop,,Dansoman Police Station,,,,,,platform,,,survey summer 2017 - AccraMobile3 project,,,,,
StopPoint:node:5000179126,5.5411138,-0.2646057,Dansoman Market,,,,,yes,,,,bus_stop,,Dansoman Market,,,,,,platform,,,survey summer 2017 - AccraMobile3 project,,,,,
StopPoint:node:5000179127,5.5379064,-0.2647419,Exhibition (Dansoman),,,,,yes,,,,bus_stop,,Exhibition (Dansoman),,,,,,platform,,,survey summer 2017 - AccraMobile3 project,,,,,
StopPoint:node:5000179128,5.5352343,-0.2651323,Seven Great,,,,,yes,,,,bus_stop,,Seven Great,,,,,,platform,,,survey summer 2017 - AccraMobile3 project,,,,,
StopPoint:node:5000179129,5.5324576,-0.2652411,Kofi ne Ama,,,,,yes,,,,bus_stop,,Kofi ne Ama,,,,,,platform,,,survey summer 2017 - AccraMobile3 project,,,,,
StopPoint:node:5000179130,5.529697,-0.2653083,Dansoman Last Stop,,,,,yes,,,,bus_stop,,Dansoman Last Stop,,,,,,platform,,,survey summer 2017 - AccraMobile3 project,,,,,
StopPoint:node:5000972532,5.5330451,-0.2653134,Kofi ne Ama,,,,,yes,,,,bus_stop,,Kofi ne Ama,,,,,,platform,,,survey summer 2017 - AccraMobile3 project,,,,,
StopPoint:node:5000972533,5.5356714,-0.26517389999999996,Seven Great,,,,,yes,,,,bus_stop,,Seven Great,,,,,,platform,,,survey summer 2017 - AccraMobile3 project,,,,,
StopPoint:node:5000972534,5.5379947,-0.26488829999999997,Exhibition (Dansoman),,,,,yes,,,,bus_stop,,Exhibition (Dansoman),,,,,,platform,,,survey summer 2017 - AccraMobile3 project,,,,,
StopPoint:node:5000972535,5.5415133,-0.2647488,Dansoman Market,,,,,yes,,,,bus_stop,,Dansoman Market,,,,,,platform,,,survey summer 2017 - AccraMobile3 project,,,,,
StopPoint:node:5000972536,5.5440301,-0.26469919999999997,Dansoman Police Station,,,,,yes,,,,bus_stop,,Dansoman Police Station,,,,,,platform,,,survey summer 2017 - AccraMobile3 project,,,,,
StopPoint:node:5000972537,5.5462926999999995,-0.2646542,Dansoman Control,,,,,yes,,,,bus_stop,,Dansoman Control,,,,,,platform,,,survey summer 2017 - AccraMobile3 project,,,,,
StopPoint:node:5000972538,5.5498053,-0.2646495,Sahara,,,,,yes,,,,bus_stop,,Sahara,,,,,,platform,,,survey summer 2017 - AccraMobile3 project,,,,,
StopPoint:node:5000972539,5.5520958,-0.2646241,Beecham,,,,,yes,,,,bus_stop,,Beecham,,,,,,platform,,,survey summer 2017 - AccraMobile3 project,,,,,
StopPoint:node:5000972540,5.5544063999999995,-0.2645959,Mama's Inn,,,,,yes,,,,bus_stop,,Mama's Inn,,,,,,platform,,,survey summer 2017 - AccraMobile3 project,,,,,
StopPoint:node:5000972541,5.5572835,-0.2648474,Dansoman Roundabout,,,,,yes,,,,bus_stop,,Dansoman Roundabout,,,,,,platform,,,survey summer 2017 - AccraMobile3 project,,,,,
StopPoint:node:5000972542,5.5596502,-0.26521079999999997,St. Martin Depores,,,,,yes,,,,bus_stop,,St. Martin Depores,,,,,,platform,,,survey summer 2017 - AccraMobile3 project,,,,,
StopPoint:node:5000972543,5.5676581999999994,-0.2703117,Thirteen,,,,,yes,,,,bus_stop,,Thirteen,,,,,,platform,,,survey summer 2017 - AccraMobile3 project,,,,,
StopPoint:node:5000972544,5.5708658,-0.2714024,Dela,,,,,yes,,,,bus_stop,,Dela,,,,,,platform,,,survey summer 2017 - AccraMobile3 project,,,,,
StopPoint:node:5000972545,5.5611133,-0.2652406,Oxygen (o2),,,,,yes,,,,bus_stop,,Oxygen (o2),,,,,,platform,,,survey summer 2017 - AccraMobile3 project,,,,,
StopPoint:node:5000972546,5.564806,-0.2681883,Ave Maria,,,,yes,yes,,,,bus_stop,,Ave Maria,,,,,,platform,,yes,survey summer 2017 - AccraMobile3 project,,,,,
StopPoint:node:5000972547,5.5714296999999995,-0.2722016,Sakaman Taxi Rank,,,,,yes,,,,bus_stop,,Sakaman Taxi Rank,,,Also Sakaman Blue Lagoon,,,platform,,,survey summer 2017 - AccraMobile3 project,,,,,
StopPoint:node:5000972548,5.5724371,-0.2727864,Tantua School,,,,,yes,,,,bus_stop,,Tantua School,,,,,,platform,,,survey summer 2017 - AccraMobile3 project,,,,,
StopPoint:node:5000972549,5.5754152,-0.2743683,Sakaman,,,,,yes,,,,bus_stop,,Sakaman,,,,,,platform,,,survey summer 2017 - AccraMobile3 project,,,,,
StopPoint:node:5000996583,5.5484032999999995,-0.26462959999999996,Emmanuel Presby,,,,,yes,,,,bus_stop,,Emmanuel Presby,,,,,,platform,,,survey summer 2017 - AccraMobile3 project,,,,,
StopPoint:node:5000996585,5.5552515,-0.2645958,King Solomon,,,,,yes,,,,bus_stop,,King Solomon,,,,,,platform,,,survey summer 2017 - AccraMobile3 project,,,,,
StopPoint:node:5000996586,5.5604363999999995,-0.26044429999999996,Dansoman First Stop,,,,,yes,,,,bus_stop,,Dansoman First Stop,,,,,,platform,,,survey summer 2017 - AccraMobile3 project,,,,,
StopPoint:node:5000996587,5.5612946,-0.2602309,Dansoman Polyclinic,,,,,yes,,,,bus_stop,,Dansoman Polyclinic,,,,,,platform,,,survey summer 2017 - AccraMobile3 project,,,,,
StopPoint:node:5000996588,5.5643918,-0.2600097,Akukofoto,,,,,yes,,,,bus_stop,,Akukofoto,,,,,,platform,,,survey summer 2017 - AccraMobile3 project,,,,,
StopPoint:node:5000996589,5.5665916,-0.2585125,Wesley Grammar,,,,,yes,,,,bus_stop,,Wesley Grammar,,,,,,platform,,,survey summer 2017 - AccraMobile3 project,,,,,
StopPoint:node:5000996590,5.5675754,-0.257634,Asoredanho Curve,,,,,yes,,,,bus_stop,,Asoredanho Curve,,,,,,platform,,,survey summer 2017 - AccraMobile3 project,,,,,
StopPoint:node:5000996591,5.5703992,-0.25535779999999997,Dansoman Asoredanho,,,,,yes,,,,bus_stop,,Dansoman Asoredanho,,,,,,platform,,,survey summer 2017 - AccraMobile3 project,,,,,
StopPoint:node:5000996592,5.5747317,-0.2526072,Hansonic Taxi Rank,,,,,yes,,,,bus_stop,,Hansonic Taxi Rank,,,,,,platform,,,survey summer 2017 - AccraMobile3 project,,,,,
StopPoint:node:5001014667,5.5702302999999995,-0.2554026,Dansoman Asoredanho,,,,,yes,,,,bus_stop,,Dansoman Asoredanho,,,,,,platform,,,survey summer 2017 - AccraMobile3 project,,,,,
StopPoint:node:5001014668,5.5680445999999995,-0.2565312,Asoredanho Curve,,,,,yes,,,,bus_stop,,Asoredanho Curve,,,,,,platform,,,survey summer 2017 - AccraMobile3 project,,,,,
StopPoint:node:5001014669,5.5646289,-0.2598464,Akukofoto,,,,,yes,,,,bus_stop,,Akukofoto,,,,,,platform,,,survey summer 2017 - AccraMobile3 project,,,,,
StopPoint:node:5001014670,5.5611410999999995,-0.26018569999999996,Dansoman Polyclinic,,,,,yes,,,,bus_stop,,Dansoman Polyclinic,,,,,,platform,,,survey summer 2017 - AccraMobile3 project,,,,,
StopPoint:node:5001014671,5.559977099999999,-0.2601891,Dansoman First Stop,,,,,yes,,,,bus_stop,,Dansoman First Stop,,,,,,platform,,,survey summer 2017 - AccraMobile3 project,,,,,
StopPoint:node:5001014673,5.548344999999999,-0.2645108,Emmanuel Presby,,,,,yes,,,,bus_stop,,Emmanuel Presby,,,,,,platform,,,survey summer 2017 - AccraMobile3 project,,,,,
StopPoint:node:5001014674,5.5668523,-0.2582445,Wesley Grammar,,,,,yes,,,,bus_stop,,Wesley Grammar,,,,,,platform,,,survey summer 2017 - AccraMobile3 project,,,,,
StopPoint:node:5001014675,5.5626814,-0.2601868,Abomatte,,,,,yes,,,,bus_stop,,Abomatte,,,,,,platform,,,survey summer 2017 - AccraMobile3 project,,,,,
StopPoint:node:5001014676,5.5586785,-0.2613127,MTN,,,,,yes,,,,bus_stop,,MTN,,,,,,platform,,,survey summer 2017 - AccraMobile3 project,,,,,
StopPoint:node:5004847997,5.5727986,-0.19122029999999998,Sankara,,,,yes,yes,,,,bus_stop,,Sankara,,,,,,platform,,yes,survey summer 2017 - AccraMobile3 project,,,,,
StopPoint:node:5004960999,5.566987,-0.1825848,Danquah,,,,,yes,,,,bus_stop,,Danquah,,,,,,platform,,,survey summer 2017 - AccraMobile3 project,,,,,
StopPoint:node:5004961000,5.569300999999999,-0.1854365,Fire Service,,,,,yes,,,,bus_stop,,Fire Service,,,,,,platform,,,survey summer 2017 - AccraMobile3 project,,,,,
